Addr,City,Control,Hbcu,Hloffer,Iclevel,Instnm,Latitude,Locale,Longitud,Newid,Number of Records,Obereg,Scugffn,Scugrad,Sector,Stabbr,Uagrntt,Unitid,Upgrntn,ZIP
4900 Meridian Street,Normal,1,1,9,1,Alabama A & M University,34.783368,12,-86.568502,-2,1,5,1023,4170,1,AL,24419254,100654,2967,35762
Administration Bldg Suite 1070,Birmingham,1,2,9,1,University of Alabama at Birmingham,33.50223,12,-86.80917,-2,1,5,1654,11291,1,AL,38122062,100663,3958,35294-0110
1200 Taylor Rd,Montgomery,2,2,9,1,Amridge University,32.362609,12,-86.17401,-2,1,5,10,329,2,AL,835626,100690,225,36117-3553
301 Sparkman Dr,Huntsville,1,2,9,1,University of Alabama in Huntsville,34.722818,12,-86.63842,-2,1,5,615,5882,1,AL,21422627,100706,1930,35899
915 S Jackson Street,Montgomery,1,1,9,1,Alabama State University,32.364317,12,-86.295677,-2,1,5,1436,5130,1,AL,34393531,100724,4240,36104-0271
739 University Blvd,Tuscaloosa,1,2,9,1,The University of Alabama,33.2144,13,-87.545766,-2,1,5,6338,28026,1,AL,147136021,100751,5905,35487-0166
1675 Cherokee Rd,Alexander City,1,2,3,2,Central Alabama Community College,32.924429,32,-85.94653,-2,1,5,886,2020,4,AL,7505069,100760,1316,35010
300 N Beaty St,Athens,1,2,5,1,Athens State University,34.805625,31,-86.96514,-2,1,5,0,3414,1,AL,5050555,100812,1402,35611
7440 East Drive,Montgomery,1,2,9,1,Auburn University at Montgomery,32.369939,12,-86.177351,-2,1,5,595,4239,1,AL,10722443,100830,1698,36117-3596
"Auburn, Alabama",Auburn University,1,2,9,1,Auburn University,32.600201,13,-85.492409,-2,1,5,3815,20175,1,AL,95070455,100858,3403,36849
900 Arkadelphia Road,Birmingham,2,2,5,1,Birmingham Southern College,33.515453,12,-86.853636,-2,1,5,327,1224,2,AL,22696049,100937,260,35254
2602 College Drive,Phenix City,1,2,3,2,Chattahoochee Valley Community College,32.42391,41,-85.031485,-2,1,5,364,1730,4,AL,5576441,101028,1058,36869
1712 Broad Street,Selma,2,1,5,1,Concordia College Alabama,32.42443,32,-87.023531,-2,1,5,156,611,2,AL,2899717,101073,511,36701
5355 Vaughn Rd,Montgomery,3,2,7,1,South University-Montgomery,32.342684,12,-86.216488,-2,1,5,52,704,3,AL,3005852,101116,502,36116
600 Plaza Drive,Enterprise,1,2,3,2,Enterprise State Community College,31.297496,32,-85.836956,-2,1,5,292,2484,4,AL,9131516,101143,1272,36330-1300
1900 US Hwy 31 S,Bay Minette,1,2,3,2,James H Faulkner State Community College,30.852045,32,-87.779758,-2,1,5,968,4399,4,AL,14109192,101161,2149,36507-2698
5345 Atlanta Hwy,Montgomery,2,2,9,1,Faulkner University,32.384181,12,-86.21641,-2,1,5,322,2763,2,AL,15208574,101189,1607,36109-3378
1001 George Wallace Dr,Gadsden,1,1,3,2,Gadsden State Community College,33.991866,13,-85.991299,-2,1,5,993,5882,4,AL,21111725,101240,3529,35903
421 Martling Road,Albertville,3,2,2,3,New Beginning College of Cosmetology,34.278124,32,-86.196979,-2,1,5,83,147,9,AL,310761,101277,72,35951
1141 Wallace Drive,Dothan,1,2,3,2,George C Wallace State Community College-Dothan,31.316086,41,-85.46355,-2,1,5,837,4582,4,AL,16220860,101286,2542,36303-9234
801 Main St NW,Hanceville,1,2,3,2,George C Wallace State Community College-Hanceville,34.07341,32,-86.781745,-2,1,5,950,5390,4,AL,15479923,101295,2704,35077-2000
3000 Earl Goodwin Parkway,Selma,1,2,3,2,George C Wallace State Community College-Selma,32.445611,32,-87.01324,-2,1,5,337,1790,4,AL,7755312,101301,1376,36703-2808
280 West Valley Ave,Birmingham,3,2,5,1,Herzing University-Birmingham,33.468105,21,-86.832299,-2,1,5,28,295,3,AL,903613,101365,188,35209
1500 East Fairview Avenue,Montgomery,2,2,5,1,Huntingdon College,32.350939,12,-86.285313,-2,1,5,276,1118,2,AL,11515823,101435,481,36106-2148
3625 Helton Dr,Florence,2,2,7,1,Heritage Christian University,34.859089,13,-87.662062,-2,1,5,2,62,2,AL,263224,101453,30,35630-9977
3421 Meridian St N,Huntsville,1,1,3,2,J F Drake State Community and Technical College,34.772116,12,-86.573817,-2,1,5,123,1248,4,AL,3720361,101462,733,35811
5375 Ingram Rd,Deatsville,1,2,3,2,J F Ingram State Technical College,32.582312,21,-86.392369,-2,1,5,190,437,4,AL,1248454,101471,0,36022
700 Pelham Road North,Jacksonville,1,2,9,1,Jacksonville State University,33.822128,13,-85.766644,-2,1,5,1302,7991,1,AL,32370217,101480,3686,36265
220 Alco Dr,Brewton,1,2,3,2,Jefferson Davis Community College,31.101995,32,-87.085829,-2,1,5,274,1094,4,AL,4088052,101499,578,36426
2601 Carson Rd,Birmingham,1,2,3,2,Jefferson State Community College,33.652439,12,-86.707387,-2,1,5,1062,8878,4,AL,17167878,101505,3177,35215-3098
6250 U S Highway 31 N,Tanner,1,2,3,2,John C Calhoun State Community College,34.65428,41,-86.949131,-2,1,5,1370,11177,4,AL,26788447,101514,4507,35671
302 Bibb St,Marion,2,2,5,1,Judson College,32.630526,43,-87.316127,-2,1,5,77,353,2,AL,6052519,101541,169,36756
3060 Wilson Rd SW,Birmingham,1,1,3,2,Lawson State Community College-Birmingham Campus,33.451673,12,-86.890234,-2,1,5,617,3419,4,AL,11684644,101569,2332,35221-1717
Station One,Livingston,1,2,8,1,University of West Alabama,32.59244,43,-88.186077,-2,1,5,364,2095,1,AL,6818271,101587,1174,35470
1000 Dannelly Blvd.,Andalusia,1,2,3,2,Lurleen B Wallace Community College,31.322947,41,-86.452262,-2,1,5,349,1646,4,AL,5854180,101602,947,36420-1418
1101 Washington St,Marion,1,2,3,2,Marion Military Institute,32.622359,43,-87.317998,-2,1,5,244,382,4,AL,3455127,101648,169,36756-3207
5500 Myron Massey Blvd,Fairfield,2,1,5,1,Miles College,33.481306,21,-86.908605,-2,1,5,442,1692,2,AL,10463629,101675,1392,35064-2621
5735 College Parkway Drive,Mobile,2,2,7,1,University of Mobile,30.793247,41,-88.128934,-2,1,5,227,1552,2,AL,13501251,101693,781,36613-2842
Station 6001,Montevallo,1,2,8,1,University of Montevallo,33.10625,21,-86.865099,-2,1,5,539,2597,1,AL,13365323,101709,1074,35115-6000
800 George Wallace Blvd,Muscle Shoals,1,2,3,2,Northwest-Shoals Community College,34.739567,13,-87.67733,-2,1,5,722,3717,4,AL,8845830,101736,1945,35661
One Harrison Plaza,Florence,1,2,8,1,University of North Alabama,34.80658,13,-87.680999,-2,1,5,1057,6098,1,AL,17781044,101879,2556,35632-0001
138  Highway 35,Rainsville,1,2,3,2,Northeast Alabama Community College,34.545471,42,-85.911664,-2,1,5,604,3140,4,AL,12469472,101897,1972,35986
7000 Adventist Blvd NW,Huntsville,2,1,7,1,Oakwood University,34.756628,12,-86.661628,-2,1,5,408,1966,2,AL,11105281,101912,996,35896
2800 South Alabama Avenue,Monroeville,1,2,3,2,Alabama Southern Community College,31.488925,41,-87.326352,-2,1,5,363,1312,4,AL,5272629,101949,735,36460
7735 Atlanta Hwy,Montgomery,3,2,3,2,Prince Institute-Southeast,32.383091,12,-86.162213,-2,1,5,9,121,6,AL,375698,101958,78,36117
I65 and Hwy 83,Evergreen,1,2,3,2,Reid State Technical College,31.46071,41,-86.964486,-2,1,5,84,495,4,AL,1914556,101994,347,36401
351 North Broad Street,Mobile,1,1,3,2,Bishop State Community College,30.693972,12,-88.056982,-2,1,5,740,3791,4,AL,12483582,102030,2408,36603-5898
800 Lakeshore Drive,Birmingham,2,2,9,1,Samford University,33.464578,21,-86.790932,-2,1,5,701,2965,2,AL,34094714,102049,443,35229-2240
"1501 Lapsley St, Dinkins Hall",Selma,2,1,7,1,Selma University,32.420358,32,-87.033826,-2,1,5,185,560,2,AL,999060,102058,420,36701
9500 Old Greensboro Rd,Tuscaloosa,1,1,3,2,Shelton State Community College,33.120531,13,-87.56148,-2,1,5,855,5104,4,AL,10091756,102067,2663,35405-8522
102 Elder Street,Boaz,1,2,3,2,Snead State Community College,34.200648,32,-86.169483,-2,1,5,651,2436,4,AL,10466932,102076,1399,35957-0734
307 N University Blvd,Mobile,1,2,9,1,University of South Alabama,30.695081,12,-88.18189,-2,1,5,1888,11315,1,AL,41918128,102094,4235,36688-0002
4000 Dauphin St,Mobile,2,2,8,1,Spring Hill College,30.694751,12,-88.138199,-2,1,5,295,1202,2,AL,22232997,102234,400,36608-1791
2545 Valleydale Road,Birmingham,2,2,5,1,Southeastern Bible College,33.378935,21,-86.749045,-2,1,5,15,179,2,AL,736680,102261,109,35224-2083
3601 Stillman Boulevard,Tuscaloosa,2,1,5,1,Stillman College,33.199228,13,-87.585242,-2,1,5,270,1019,2,AL,7195038,102270,757,35403
627 W Battle St,Talladega,2,1,5,1,Talladega College,33.434258,32,-86.113675,-2,1,5,425,861,2,AL,13507072,102298,832,35160
1225 Air Base Blvd,Montgomery,1,1,3,2,H Councill Trenholm State Technical College,32.350109,12,-86.343057,-2,1,5,241,1445,4,AL,3572247,102313,881,36108-3199
University Avenue,Troy,1,2,9,1,Troy University,31.800128,41,-85.950191,-2,1,5,1444,17912,1,AL,59029297,102368,8522,36082-0001
"Kresge Center, 3rd Floor",Tuskegee,2,1,9,1,Tuskegee University,32.431021,32,-85.710315,-2,1,5,653,2605,2,AL,8644642,102377,1681,36088-1920
One Academy Drive,Daphne,2,2,9,1,United States Sports Academy,30.639329,13,-87.91163,-2,1,5,0,117,2,AL,300588,102395,55,36526-7055
1411 Indiana Avenue,Jasper,1,2,3,2,Bevill State Community College,33.835785,32,-87.265034,-2,1,5,747,3734,4,AL,12283096,102429,2182,35501
3211 Providence Drive,Anchorage,1,2,9,1,University of Alaska Anchorage,61.189554,11,-149.826135,-2,1,8,1457,16505,1,AK,33464041,102553,4082,99508
248 E Elmwood,Palmer,2,2,5,1,Alaska Bible College,61.59843,32,-149.111341,-2,1,8,12,55,2,AK,84887,102580,12,99645
505 South Chandalar Drive,Fairbanks,1,2,9,1,University of Alaska Fairbanks,64.857053,23,-147.824751,-2,1,8,761,8039,1,AK,18268755,102614,1888,99775-7500
11120 Glacier Highway,Juneau,1,2,7,1,University of Alaska Southeast,58.38427,33,-134.636346,-2,1,8,194,2732,1,AK,4177069,102632,501,99801-8697
4101 University Dr,Anchorage,2,2,9,1,Alaska Pacific University,61.191235,11,-149.804242,-2,1,8,26,412,2,AK,1876995,102669,115,99508
809 Second Avenue,Seward,1,2,3,2,AVTEC-Alaska's Institute of Technology,60.110727,43,-149.444573,-2,1,8,496,774,4,AK,526675,102711,90,99664-0889
2221 E Northern Lights Blvd Ste 120,Anchorage,3,2,5,1,Charter College-Anchorage,61.195786,11,-149.840178,-2,1,8,409,1705,3,AK,4002037,102845,1125,99508
303 Lowe Street,Valdez,1,2,3,2,Prince William Sound Community College,61.122364,43,-146.17799,-2,1,8,10,521,4,AK,539107,103361,109,99686-0097
1415 E Tudor Road,Anchorage,3,2,3,2,Alaska Career College,61.181443,11,-149.856954,-2,1,8,325,508,6,AK,1747825,103501,314,99507-1033
"10400 N. 25th Avenue, Suite 190",Phoenix,3,2,5,1,Everest College-Phoenix,33.580985,11,-112.113845,-2,1,6,125,1578,3,AZ,6231678,103644,1304,85021-1641
4750 S 44th Place,Phoenix,3,2,5,1,Collins College,33.40334,11,-111.98646,-2,1,6,59,590,3,AZ,2636259,103723,441,85040
12827 N Tatum Blvd,Phoenix,3,2,2,3,Empire Beauty School-Paradise Valley,33.602593,11,-111.976357,-2,1,6,16,97,9,AZ,210888,103732,64,85032
3030 E Speedway Blvd,Tucson,3,2,2,3,Empire Beauty School-Tucson,32.235657,11,-110.927187,-2,1,6,93,306,9,AZ,846345,103741,240,85716
1 Global Place,Glendale,2,2,8,1,Thunderbird School of Global Management,33.620887,21,-112.180861,-2,1,6,0,3,2,AZ,0,103778,0,85306-6000
10020 N 15th Ave,Phoenix,2,2,5,1,American Indian College of the Assemblies of God Inc,33.577738,11,-112.092247,-2,1,6,8,73,2,AZ,885975,103787,58,85021
440 S 54th Avenue,Phoenix,3,2,1,3,American Institute of Technology,33.442262,11,-112.175304,-2,1,6,1562,1644,9,AZ,3158761,103811,811,85043-4729
8503 N 27th Ave.,Phoenix,3,2,5,1,Carrington College-Phoenix,33.560821,11,-112.115546,-2,1,6,447,1031,3,AZ,2862150,103893,748,85051-4063
"1001 Southern Ave., Ste. 130",Mesa,3,2,4,2,Carrington College-Mesa,33.39207,11,-111.855281,-2,1,6,301,1176,6,AZ,3563085,103909,858,85210
3550 N Oracle Rd.,Tucson,3,2,3,2,Carrington College-Tucson,32.27094,11,-110.977571,-2,1,6,319,730,6,AZ,1721146,103927,475,85705-5885
3012 East Route 66,Flagstaff,2,2,5,1,College America-Flagstaff,35.211152,13,-111.604793,-2,1,6,109,255,2,AZ,916515,103945,215,86004
5631 E Speedway Blvd,Tucson,3,2,2,3,Arizona Academy of Beauty-East,32.237253,11,-110.872305,-2,1,6,11,80,9,AZ,155865,103954,46,85712
6829 N 46th Ave,Glendale,3,2,2,3,Arizona Automotive Institute,33.537249,21,-112.157344,-2,1,6,817,1045,9,AZ,1987456,103963,809,85301-3579
"2445 W. Dunlap Ave., Ste. 100",Phoenix,3,2,7,1,Brookline College-Phoenix,33.525384,11,-112.15007,-2,1,6,993,1861,3,AZ,5200493,104090,1230,85021
University Drive and Mill Avenue,Tempe,1,2,9,1,Arizona State University-Tempe,33.421922,12,-111.940011,-2,1,6,6450,39066,1,AZ,238129003,104151,13187,85287
2020 S. Avenue 8E,Yuma,1,2,3,2,Arizona Western College,32.689306,13,-114.495968,-2,1,6,917,7877,4,AZ,26054296,104160,4571,85365-8834
1401 E University,Tucson,1,2,9,1,University of Arizona,32.232071,11,-110.950769,-2,1,6,6955,31565,1,AZ,225222780,104179,10306,85721-0066
2525 N Country Club Rd,Tucson,3,2,7,1,Southwest University of Visual Arts-Tucson,32.252384,11,-110.927321,-2,1,6,126,211,3,AZ,418620,104188,112,85716
"15147 N. Scottsdale Road, Suite H-300",Scottsdale,3,2,2,3,Brillare Hairdressing Academy,33.623979,12,-111.925481,-2,1,6,73,297,9,AZ,544532,104294,170,85254
8470 N Overfield Rd,Coolidge,1,2,3,2,Central Arizona College,32.957092,41,-111.652501,-2,1,6,590,7018,4,AZ,14128280,104346,3259,85128-9030
4585 E Speedway Blvd.,Tucson,3,2,5,1,Brown Mackie College-Tucson,32.236736,11,-110.895086,-2,1,6,121,784,3,AZ,2850137,104364,655,85712
"1987 McCulloch Blvd, Suite 205",Lake Havasu City,3,2,2,3,Charles of Italy Beauty College,34.475275,13,-114.328134,-2,1,6,148,151,9,AZ,334915,104391,95,86403
4190 W Highway 80,Douglas,1,2,3,2,Cochise College,31.365757,42,-109.690422,-2,1,6,418,4516,4,AZ,7519384,104425,1391,85607-6190
1790 E Rte 66,Flagstaff,3,2,2,3,Empire Beauty School-Flagstaff,35.197151,13,-111.625936,-2,1,6,38,95,9,AZ,257676,104434,71,86004
2978 N Alma School Rd #1-3,Chandler,3,2,2,3,Empire Beauty School-Chandler,33.347586,21,-111.860423,-2,1,6,32,194,9,AZ,467958,104443,138,85224
"6390 E. Broadway, Suite 100",Tucson,3,2,2,3,Cortiva Institute-Tucson,32.21901,11,-110.856785,-2,1,6,55,228,9,AZ,519372,104504,162,85710
2111 S Alma School Rd Ste 21,Mesa,3,2,2,3,Avalon School of Cosmetology-Mesa,33.376583,11,-111.858305,-2,1,6,195,492,9,AZ,3728235,104568,390,85210
615 N. Stadium Ave.,Thatcher,1,2,3,2,Eastern Arizona College,32.840719,33,-109.761664,-2,1,6,645,6435,4,AZ,7626741,104577,1271,85552-0769
3700 Willow Creek Road,Prescott,2,2,7,1,Embry-Riddle Aeronautical University-Prescott,34.615678,41,-112.452285,-2,1,6,374,1678,2,AZ,15859530,104586,484,86301-3720
Taliesin West,Scottsdale,2,2,7,1,Frank Lloyd Wright School of Architecture,33.60715,41,-111.846477,-2,1,6,0,3,2,AZ,18050,104665,1,85261-4430
6000 W Olive Ave,Glendale,1,2,3,2,Glendale Community College,33.567483,21,-112.188334,-2,1,6,2227,21361,4,AZ,32878525,104708,8147,85302
3300 W Camelback Rd,Phoenix,3,2,9,1,Grand Canyon University,33.512172,11,-112.129917,-2,1,6,1264,31158,3,AZ,152912312,104717,16394,85017
1515 E Indian School Road,Phoenix,3,2,5,1,Anthem College-Phoenix,33.494316,11,-112.050186,-2,1,6,443,1856,3,AZ,6870944,104805,1446,85014
1445 W Southern Ave #2006,Mesa,3,2,2,3,International Academy of Hair Design,33.392961,11,-111.862674,-2,1,6,240,401,9,AZ,1131464,104911,288,85202-4887
"13610 N Black Canyon Hwy,  Ste 104",Phoenix,3,2,3,2,Kaplan College-Phoenix,33.608202,11,-112.118921,-2,1,6,77,431,6,AZ,915268,105118,222,85029
108 N. 40th Street,Phoenix,1,2,4,2,GateWay Community College,33.4495,11,-111.996527,-2,1,6,309,6720,4,AZ,8178212,105145,2267,85034
1833 W Southern Ave,Mesa,1,2,3,2,Mesa Community College,33.391256,11,-111.871494,-2,1,6,2124,25024,4,AZ,35770083,105154,9324,85202
1455 W. River Rd,Tucson,3,2,5,1,ITT Technical Institute-Tucson,32.297261,21,-110.997501,-2,1,6,42,460,3,AZ,1575410,105163,336,85704-5829
5005 S. Wendler Drive,Tempe,3,2,5,1,ITT Technical Institute-Tempe,33.380355,12,-111.969169,-2,1,6,43,575,3,AZ,1915882,105172,391,85282
1971 Jagerson Ave,Kingman,1,2,3,2,Mohave Community College,35.270737,41,-114.030244,-2,1,6,227,5220,4,AZ,17545023,105206,2491,86409-1238
2844 W Deer Valley Rd,Phoenix,3,2,4,2,Universal Technical Institute of Arizona Inc-Motorcycle Mechanics Institute Division,33.684428,11,-112.121336,-2,1,6,1228,3323,6,AZ,8109280,105215,1601,85027
"Route 12, One Circle Drive",Tsaile,1,2,5,1,Dine College,36.293328,43,-109.21684,-2,1,6,286,1970,1,AZ,8220886,105297,1620,86556
"1900 S. Knoles Dr, Babbitt Administrative Center",Flagstaff,1,2,9,1,Northern Arizona University,35.180095,13,-111.657653,-2,1,6,4092,21768,1,AZ,99875474,105330,8223,86011-4132
2251 E. Navajo Blvd.,Holbrook,1,2,3,2,Northland Pioneer College,34.922221,41,-110.1316,-2,1,6,87,3718,4,AZ,3745399,105349,1094,86025-0610
10020 North 25th Avenue,Phoenix,2,2,8,1,Ottawa University-Phoenix,33.577907,11,-112.113447,-2,1,6,0,336,2,AZ,1121026,105367,201,85021
1202 W Thomas Rd,Phoenix,1,2,3,2,Phoenix College,33.481361,11,-112.088293,-2,1,6,731,12228,4,AZ,22563962,105428,5787,85013
8010 East McDowell Road #214,Scottsdale,3,2,1,3,Cortiva Institute-Scottsdale,33.466554,12,-111.908433,-2,1,6,49,151,9,AZ,235803,105482,83,85257
1625 West Fountainhead Parkway,Tempe,3,2,8,1,University of Phoenix-Phoenix Campus,33.40319,12,-111.966271,-2,1,6,79,3724,3,AZ,12242754,105516,1952,85282-2371
4905C East  Broadway Blvd.,Tucson,1,2,3,2,Pima Community College,32.221772,11,-110.887019,-2,1,6,2746,32988,4,AZ,41713878,105525,10780,85709-1275
"3350 East Grant Road, Suite 200",Tucson,3,2,5,1,Pima Medical Institute-Tucson,32.250448,11,-110.921306,-2,1,6,2266,2660,3,AZ,8197467,105534,1303,85716
4400 Cutler Avenue NE,Albuquerque,3,2,3,2,Pima Medical Institute-Albuquerque,35.10485,11,-106.594451,-2,1,6,1421,1496,6,NM,5357925,105543,925,87110
220 Grove Ave,Prescott,2,2,9,1,Prescott College,34.5445,13,-112.476509,-2,1,6,64,673,2,AZ,6942055,105589,306,86301
4210 E Washington Street,Phoenix,3,2,3,2,Refrigeration School Inc,33.448692,11,-111.989357,-2,1,6,530,1012,6,AZ,3108119,105659,653,85034-1816
2323 W 14th St,Tempe,1,2,3,2,Rio Salado College,33.413138,12,-111.975201,-2,1,6,265,24342,4,AZ,18545753,105668,6229,85281
1012 NW Grand Ave,Phoenix,3,2,1,3,Roberto-Venn School of Luthiery,33.45489,11,-112.086161,-2,1,6,12,60,9,AZ,86137,105677,28,85007
1550 West Thatcher Blvd,Safford,3,2,2,3,Hair Academy of Safford,32.835302,41,-109.727696,-2,1,6,34,88,9,AZ,341668,105701,54,85546
9000 E Chaparral Rd,Scottsdale,1,2,3,2,Scottsdale Community College,33.509489,41,-111.887298,-2,1,6,1022,10895,4,AZ,9950327,105747,2393,85256
7050 S 24th St,Phoenix,1,2,3,2,South Mountain Community College,33.381001,11,-112.057515,-2,1,6,456,4843,4,AZ,10070876,105792,2445,85042
2625 E Cactus Rd,Phoenix,2,2,5,1,Arizona Christian University,33.595117,11,-112.026211,-2,1,6,95,683,2,AZ,9595607,105899,224,85032-7097
"5151 E Broadway Blvd, Ste.155",Tucson,3,2,2,3,Tucson College,32.22205,11,-110.883181,-2,1,6,406,742,9,AZ,1721258,105987,424,85711
10695 West Pierce Street,Avondale,3,2,3,2,Universal Technical Institute of Arizona Inc,33.453533,22,-112.289693,-2,1,6,1487,3594,6,AZ,8717509,106041,1728,85323
1601 W Fountainhead Parkway,Tempe,3,2,7,1,Western International University,33.403635,12,-111.96412,-2,1,6,39,2129,3,AZ,6987528,106102,822,85282
2727 W. Glendale Ave. #200,Glendale,3,2,2,3,Empire Beauty School-NW Phoenix,33.538093,11,-112.118168,-2,1,6,81,319,9,AZ,978565,106111,257,85051
1100 E Sheldon St,Prescott,1,2,3,2,Yavapai College,34.547512,13,-112.454156,-2,1,6,415,8283,4,AZ,17084066,106148,2605,86301
2801 S University Ave,Little Rock,1,2,9,1,University of Arkansas at Little Rock,34.726644,12,-92.341835,-2,1,5,807,10311,1,AR,38556286,106245,4152,72204
4301 W Markham,Little Rock,1,2,9,1,University of Arkansas for Medical Sciences,34.749718,12,-92.320945,-2,1,5,0,821,1,AR,2319120,106263,298,72205-7199
203 S 26th Street,Arkadelphia,3,2,2,3,ABC Beauty College Inc,34.12018,32,-93.080831,-2,1,5,31,76,9,AR,568165,106281,73,71923
1621 Dr. Martin Luther King Drive,Little Rock,2,1,5,1,Arkansas Baptist College,34.734751,12,-92.290555,-2,1,5,258,1082,2,AR,9604267,106306,769,72202-6068
5108 Baseline Rd,Little Rock,3,2,2,3,Arkansas Beauty School,34.669071,12,-92.334814,-2,1,5,5,61,9,AR,228678,106315,61,72209
109 N Commerce St,Russellville,3,2,2,3,Arkansas Beauty College,35.278622,33,-93.13522,-2,1,5,37,52,9,AR,130891,106324,48,72801
2300 Highland Road,Batesville,2,2,5,1,Lyon College,35.778934,33,-91.628115,-2,1,5,160,600,2,AR,9891692,106342,277,72501
200 E Washington Ave,North Little Rock,3,2,2,3,Arkansas College of Barbering and Hair Design,34.753621,13,-92.266336,-2,1,5,32,178,9,AR,625223,106351,131,72114
2000 North B St,Fort Smith,3,2,2,3,Arthur's Beauty College Inc-Fort Smith,35.379955,13,-94.410967,-2,1,5,21,71,9,AR,284781,106360,55,72901-3342
Administration Bldg 425,Fayetteville,1,2,9,1,University of Arkansas,36.06153,13,-94.178214,-2,1,5,4550,20350,1,AR,87603584,106397,4939,72701
1200 N University Mail Slot 4789,Pine Bluff,1,1,9,1,University of Arkansas at Pine Bluff,34.242192,13,-92.021263,-2,1,5,564,2724,1,AR,17725112,106412,1903,71601
1000 Iowa Street,Beebe,1,2,3,2,Arkansas State University-Beebe,35.074512,31,-91.896165,-2,1,5,884,4643,4,AR,10638202,106449,1465,72012-1000
2105 E. Aggie Road,Jonesboro,1,2,9,1,Arkansas State University-Main Campus,35.842779,13,-90.680478,-2,1,5,1633,10168,1,AR,55456655,106458,4696,72401
Administration Bldg 200; 1509 N Boulder Ave,Russellville,1,2,8,1,Arkansas Tech University,35.295227,33,-93.13233,-2,1,5,1694,10089,1,AR,48874546,106467,4600,72801-2222
Highway 425 South,Monticello,1,2,7,1,University of Arkansas at Monticello,33.589788,33,-91.812971,-2,1,5,726,3830,1,AR,20364604,106485,2479,71656
2600 John Harden Dr,Jacksonville,3,2,2,3,Arthur's Beauty College Inc-Jacksonville,34.8918,21,-92.102284,-2,1,5,14,81,9,AR,189949,106494,55,72076
11900 Col Glenn Rd Ste 1000,Little Rock,2,2,4,2,Baptist Health Schools-Little Rock,34.713115,12,-92.40692,-2,1,5,28,910,5,AR,2609955,106546,544,72210-2820
1410 Hwy 304 East,Pocahontas,1,2,3,2,Black River Technical College,36.239793,41,-90.951033,-2,1,5,389,2401,4,AR,9299939,106625,1538,72455
201 Donaghey Ave,Conway,1,2,9,1,University of Central Arkansas,35.078196,13,-92.45931,-2,1,5,2130,9604,1,AR,57691922,106704,3781,72035-0001
1501 College Avenue,Conway,2,2,5,1,Central Baptist College,35.084574,13,-92.444102,-2,1,5,102,832,2,AR,4619499,106713,377,72034
183 College Drive,De Queen,1,2,3,2,Cossatot Community College of the University of Arkansas,34.043389,41,-94.3673,-2,1,5,195,1600,4,AR,3835699,106795,611,71832
100 College Dr,Paragould,2,2,5,1,Crowley's Ridge College,36.066239,41,-90.58482,-2,1,5,62,210,2,AR,1226054,106810,93,72450
1620 Newcastle Road,Forrest City,1,2,2,3,Crowley's Ridge Technical Institute,35.041908,32,-90.767807,-2,1,5,75,279,7,AR,1207626,106829,218,72335-0925
1700 Newcastle Rd,Forrest City,1,2,3,2,East Arkansas Community College,35.039673,32,-90.767445,-2,1,5,292,1464,4,AR,3483759,106883,609,72335-2204
200 South University Avenue,Little Rock,3,2,1,3,Eastern College of Health Vocations-Little Rock,34.75128,12,-92.341891,-2,1,5,312,440,9,AR,2151576,106892,391,72205
4201 E McCain Blvd,North Little Rock,3,2,2,3,Imagine-Paul Mitchell Partner School,34.791306,13,-92.221304,-2,1,5,138,671,9,AR,1237625,106908,342,72117
101 College Dr,Hot Springs,1,2,3,2,National Park Community College,34.512731,23,-93.117111,-2,1,5,377,3769,4,AR,9781471,106980,2274,71913
2005 White Drive,Batesville,1,2,3,2,University of Arkansas Community College-Batesville,35.79293,33,-91.616123,-2,1,5,197,1443,4,AR,6549693,106999,913,72503-3350
915 E. Market Ave.,Searcy,2,2,9,1,Harding University,35.249605,32,-91.729008,-2,1,5,1019,4360,2,AR,35181444,107044,1147,72143
1100 Henderson Street,Arkadelphia,1,2,8,1,Henderson State University,34.127792,32,-93.060313,-2,1,5,775,3365,1,AR,23496837,107071,1782,71999-0001
1600 Washington Ave,Conway,2,2,7,1,Hendrix College,35.09972,13,-92.442021,-2,1,5,369,1373,2,AR,35964743,107080,246,72032-3080
100 Cones Rd,Hot Springs,3,2,2,3,Hot Springs Beauty College,34.496287,13,-93.038381,-2,1,5,10,73,9,AR,194234,107099,41,71901
1600 West 40th St,Pine Bluff,2,2,4,2,Jefferson Regional Medical Center School of Nursing,34.187831,13,-92.018045,-2,1,5,0,119,5,AR,522809,107123,77,71603
2000 W University St,Siloam Springs,2,2,8,1,John Brown University,36.191077,32,-94.559088,-2,1,5,318,2010,2,AR,20747768,107141,640,72761
2700 W. Pershing Blvd,North  Little Rock,3,2,2,3,Lees School of Cosmetology,34.781993,13,-92.296729,-2,1,5,37,37,9,AR,156384,107211,24,72114-3800
346 E. Robinson Ave,Springdale,3,2,2,3,Career Academy of Hair Design,36.16757,13,-94.131834,-2,1,5,174,482,9,AR,894927,107220,232,72764-7128
408 Hwy 201 N,Mountain Home,3,2,2,3,Marsha Kay Beauty College,36.344658,33,-92.386019,-2,1,5,9,24,9,AR,77000,107275,23,72653-3164
311 S 16th St,Fort Smith,3,2,2,3,Academy of Salon and Spa,35.380891,13,-94.416327,-2,1,5,70,126,9,AR,338069,107293,85,72901
2000 W.  Broadway,West Memphis,1,2,3,2,Mid-South Community College,35.145736,21,-90.22285,-2,1,5,230,1980,4,AR,5267862,107318,1152,72301-3829
2501 S Division,Blytheville,1,2,3,2,Arkansas Northeastern College,35.897362,41,-89.922491,-2,1,5,233,1672,4,AR,5874918,107327,839,72316-1109
305 East Gaines Street,Monticello,3,2,2,3,Margaret's Hair Academy Inc,33.629169,33,-91.7887,-2,1,5,23,82,9,AR,314951,107363,79,71655
1221 E 7th St,North Little Rock,3,2,2,3,New Tyler Barber College Inc,34.759076,13,-92.254108,-2,1,5,33,93,9,AR,302670,107442,57,72114-4973
1515 Pioneer Dr,Harrison,1,2,3,2,North Arkansas College,36.220528,33,-93.087317,-2,1,5,388,2315,4,AR,11191024,107460,1423,72601-5508
709 S Old Missouri Rd,Springdale,1,2,2,3,Northwest Technical Institute,36.178617,13,-94.116433,-2,1,5,227,262,7,AR,142755,107488,56,72764
410 Ouachita St,Arkadelphia,2,2,5,1,Ouachita Baptist University,34.125045,32,-93.052442,-2,1,5,363,1532,2,AR,23313491,107512,414,71998-0001
One College Circle,Malvern,1,2,3,2,College of the Ouachitas,34.378745,31,-92.821416,-2,1,5,120,1412,4,AR,4261788,107521,522,72104-0816
218 College Dr,Melbourne,1,2,3,2,Ozarka College,36.053031,43,-91.896355,-2,1,5,247,1557,4,AR,9888892,107549,1104,72556-0010
415 N College Ave,Clarksville,2,2,5,1,University of the Ozarks,35.477785,33,-93.467924,-2,1,5,157,576,2,AR,10336330,107558,225,72830
1537 University Blvd.,Morrilton,1,2,3,2,University of Arkansas Community College-Morrilton,35.172136,32,-92.728507,-2,1,5,414,2125,4,AR,5706140,107585,1428,72110
900 W. Daisy Bates Drive,Little Rock,2,1,5,1,Philander Smith College,34.73666,12,-92.28242,-2,1,5,162,666,2,AR,6127881,107600,485,72202-3799
1000 Campus Drive,Helena,1,2,3,2,Phillips Community College of the University of Arkansas,34.544976,41,-90.617745,-2,1,5,194,1980,4,AR,3846854,107619,784,72342-0785
1900 Hazel St.,Pine Bluff,1,2,3,2,Southeast Arkansas College,34.209797,13,-92.024731,-2,1,5,236,1845,4,AR,5152138,107637,1082,71603
460 North Washington,El Dorado,3,2,2,3,Professional Cosmetology Education Center,33.215124,33,-92.663131,-2,1,5,21,65,9,AR,199382,107655,46,71730-4009
3000 W Scenic Dr,North Little Rock,1,2,4,2,Pulaski Technical College,34.78243,13,-92.299729,-2,1,5,1177,11938,4,AR,35003382,107664,6849,72118-3347
2500 S Main,Hope,1,2,3,2,University of Arkansas Community College-Hope,33.64791,32,-93.584528,-2,1,5,312,1496,4,AR,5386415,107725,926,71801
1100 College Dr,Mena,1,2,3,2,Rich Mountain Community College,34.590793,33,-94.2197,-2,1,5,148,1051,4,AR,2395867,107743,409,71953
4156 N Steele Blvd,Fayetteville,3,2,2,3,Paul Mitchell the School-Arkansas,36.127461,13,-94.154447,-2,1,5,31,148,9,AR,274997,107789,65,72703
1004 S Main,Searcy,3,2,2,3,Searcy Beauty College Inc,35.237723,32,-91.73454,-2,1,5,26,132,9,AR,226573,107831,61,72143
604 Locust St,N Little Rock,2,1,3,2,Shorter College,34.75933,13,-92.261331,-2,1,5,52,52,5,AR,250299,107840,39,72114
60 W Fulbright Avenue,Walnut Ridge,2,2,5,1,Williams Baptist College,36.126825,42,-90.939876,-2,1,5,132,566,2,AR,5424465,107877,298,72476
300 S West Ave,El Dorado,1,2,3,2,South Arkansas Community College,33.209446,33,-92.666087,-2,1,5,194,1757,4,AR,4568382,107974,896,71731-7010
100 E. University,Magnolia,1,2,7,1,Southern Arkansas University Main Campus,33.291195,33,-93.235087,-2,1,5,586,2865,1,AR,20130314,107983,1476,71753
6415 Spellman Road,Camden,1,2,3,2,Southern Arkansas University Tech,33.63037,42,-92.719498,-2,1,5,209,1817,4,AR,4710108,107992,585,71701-1906
1520 Martin Luther King Dr,Little Rock,3,2,2,3,Velvatex College of Beauty Culture,34.735724,12,-92.289758,-2,1,5,15,25,9,AR,75000,108065,13,72202-5452
5210 Grand Ave,Fort Smith,1,2,5,1,University of Arkansas-Fort Smith,35.385345,13,-94.374073,-2,1,5,1296,7352,1,AR,32810916,108092,3715,72913-3649
79 New Montgomery,San Francisco,3,2,7,1,Academy of Art University,37.787748,11,-122.400686,-2,1,8,715,11082,3,CA,35696684,108232,4701,94105
10863 Gold Center Dr,Rancho Cordova,3,2,5,1,ITT Technical Institute-Rancho Cordova,38.59172,13,-121.281506,-2,1,8,44,577,3,CA,1820582,108250,382,95670-6034
16052 Beach Blvd St 263n,Huntington Beach,3,2,2,3,The Academy of Radio and TV Broadcasting,33.728895,21,-117.987666,-2,1,8,70,79,9,CA,332750,108348,65,92647
2318 Central Ave,Alameda,3,2,2,3,Avalon School of Cosmetology-Alameda,37.764203,21,-122.243566,-2,1,8,92,267,9,CA,802910,108649,210,94501
555 Ralph Appezzato Memorial Pky,Alameda,1,2,3,2,College of Alameda,37.78239,21,-122.279261,-2,1,8,148,5682,4,CA,7458068,108667,1252,94501
800 South College Drive,Santa Maria,1,2,4,2,Allan Hancock College,34.942979,12,-120.421486,-2,1,8,898,10837,4,CA,16273434,108807,2627,93454-6399
1336 N La Brea,Los Angeles,2,2,4,2,American Academy of Dramatic Arts-Los Angeles,34.095315,11,-118.344097,-2,1,8,111,221,5,CA,1562500,108852,92,90028
646 S. Sunset Ave,West Covina,3,2,2,3,American Beauty College,33.884391,21,-118.125036,-2,1,8,32,155,9,CA,482939,108977,128,91790
4021 Rosewood Avenue,Los Angeles,3,2,3,2,American Career College-Los Angeles,34.079236,11,-118.292282,-2,1,8,1489,2923,6,CA,8579415,109040,2065,90004
4700 College Oak Dr,Sacramento,1,2,4,2,American River College,38.649734,21,-121.346012,-2,1,8,1188,31088,4,CA,49156609,109208,8885,95841-4286
22336 Main Street,Hayward,3,2,2,3,Everest College-Hayward,37.675438,12,-122.084826,-2,1,8,116,393,9,CA,1455519,109332,276,94541
3041 West  Ave K,Lancaster,1,2,3,2,Antelope Valley College,34.676207,21,-118.186166,-2,1,8,901,13746,4,CA,34565885,109350,7025,93536-5426
1700 Lida St,Pasadena,2,2,7,1,Art Center College of Design,34.170844,12,-118.186901,-2,1,8,159,1657,2,CA,12073459,109651,611,91103
1670 Wilshire Blvd,Los Angeles,3,2,2,3,Associated Technical College-Los Angeles,34.055987,11,-118.27243,-2,1,8,474,758,9,CA,2210274,109721,530,90017-1604
707 Broadway-Ste 300,San Diego,3,2,1,3,Associated Technical College-San Diego,32.715658,11,-117.158203,-2,1,8,169,181,9,CA,773754,109730,178,92101
901 E Alosta,Azusa,2,2,9,1,Azusa Pacific University,34.130865,21,-117.88795,-2,1,8,1247,6224,2,CA,66208155,109785,1779,91702-7000
1801 Panorama Dr,Bakersfield,1,2,3,2,Bakersfield College,35.4108,11,-118.973491,-2,1,8,1336,17344,4,CA,34216034,109819,6772,93305-1299
2700 Barstow Road,Barstow,1,2,3,2,Barstow Community College,34.871451,32,-117.02523,-2,1,8,231,3153,4,CA,7650090,109907,1558,92311
1520 East Plaza Blvd,National City,3,2,4,2,Bellus Academy-National City,32.676762,21,-117.090235,-2,1,8,39,293,6,CA,846351,109934,160,91950
730 N. Euclid St,Anaheim,2,2,9,1,Bethesda University of California,33.842295,11,-117.941323,-2,1,8,55,256,2,CA,900910,110060,192,92801
13800 Biola Ave,La Mirada,2,2,9,1,Biola University,33.904823,21,-118.017342,-2,1,8,914,4338,2,CA,94157797,110097,1346,90639-0001
25/27 Mason Street,Santa Barbara,3,2,7,1,Brooks Institute,34.418552,13,-119.695991,-2,1,8,66,661,3,CA,1778837,110185,283,93101
1110 Technology Cir Ste D,Anaheim,3,2,2,3,Brownson Technical School,33.819,11,-117.906409,-2,1,8,274,317,9,CA,1505392,110194,252,92805
3580 Wilshire blvd suite 400,Los Angeles,3,2,6,1,Bryan University,34.061406,11,-118.302882,-2,1,8,219,1315,3,CA,6298500,110219,774,90010
3536 Butte Campus Drive,Oroville,1,2,4,2,Butte College,39.649116,42,-121.644691,-2,1,8,948,12290,4,CA,31385874,110246,6063,95965-8399
1453 Mission Street,San Francisco,2,2,9,1,California Institute of Integral Studies,37.774768,11,-122.416537,-2,1,8,0,93,2,CA,426449,110316,53,94103
6500 Soquel Dr,Aptos,1,2,3,2,Cabrillo College,36.9891,22,-121.927926,-2,1,8,930,13559,4,CA,18667229,110334,3359,95003
8432 Magnolia Ave,Riverside,2,2,7,1,California Baptist University,33.928569,11,-117.42587,-2,1,8,876,4934,2,CA,52205361,110361,2357,92504-3297
1111 Eighth Street,San Francisco,2,2,7,1,California College of the Arts,37.767266,11,-122.400263,-2,1,8,210,1478,2,CA,19597235,110370,479,94107-2247
1200 E California Blvd,Pasadena,2,2,9,1,California Institute of Technology,34.139275,12,-118.12574,-2,1,8,264,997,2,CA,18409281,110404,106,91125
60 W Olsen Rd,Thousand Oaks,2,2,9,1,California Lutheran University,34.225551,12,-118.879467,-2,1,8,558,2804,2,CA,41678965,110413,723,91360-2787
1 Grand Ave.,San Luis Obispo,1,2,7,1,California Polytechnic State University-San Luis Obispo,35.29889,23,-120.65856,-2,1,8,3620,17680,1,CA,50579267,110422,3492,93407
10455 Pomerado Road,San Diego,2,2,9,1,Alliant International University,32.897056,11,-117.094398,-2,1,8,4,189,2,CA,520372,110468,61,92131-1799
9001 Stockdale Hwy,Bakersfield,1,2,7,1,California State University-Bakersfield,35.350005,11,-119.104711,-2,1,8,1295,7400,1,CA,54755129,110486,4324,93311-1099
One University Circle,Turlock,1,2,9,1,California State University-Stanislaus,37.52577,23,-120.852511,-2,1,8,1082,7621,1,CA,46482106,110495,4400,95382-0299
5500 University Pky,San Bernardino,1,2,9,1,California State University-San Bernardino,34.182987,12,-117.322508,-2,1,8,2391,16055,1,CA,95629046,110510,9310,92407-2397
3801 West Temple Avenue,Pomona,1,2,9,1,California State Polytechnic University-Pomona,34.054273,21,-117.819019,-2,1,8,3022,20542,1,CA,93028252,110529,9046,91768
First and Normal Sts,Chico,1,2,7,1,California State University-Chico,39.728003,13,-121.846333,-2,1,8,2659,15316,1,CA,63765292,110538,5962,95929-0150
1000 E Victoria St,Carson,1,2,8,1,California State University-Dominguez Hills,33.86524,13,-118.259316,-2,1,8,1133,11503,1,CA,65470324,110547,6743,90747-0005
5241 N Maple Ave,Fresno,1,2,9,1,California State University-Fresno,36.814477,11,-119.748258,-2,1,8,3036,19719,1,CA,114586912,110556,10663,93740
800 N State College Blvd,Fullerton,1,2,9,1,California State University-Fullerton,33.883627,21,-117.885349,-2,1,8,4419,32379,1,CA,133479106,110565,13150,92831-3599
25800 Carlos Bee Blvd,Hayward,1,2,9,1,California State University-East Bay,37.65707,12,-122.058073,-2,1,8,1549,11562,1,CA,51984312,110574,5117,94542
1250 Bellflower Blvd,Long Beach,1,2,9,1,California State University-Long Beach,33.782752,11,-118.1123,-2,1,8,4146,31053,1,CA,150556130,110583,14698,90840-0115
5151 State University Dr,Los Angeles,1,2,9,1,California State University-Los Angeles,34.066927,11,-118.168965,-2,1,8,2765,18111,1,CA,114048784,110592,11677,90032
18111 Nordhoff St,Northridge,1,2,9,1,California State University-Northridge,34.23671,11,-118.526817,-2,1,8,4088,31442,1,CA,156011246,110608,15244,91330
6000 J St,Sacramento,1,2,9,1,California State University-Sacramento,38.55745,11,-121.42194,-2,1,8,2990,25624,1,CA,132697874,110617,12940,95819-2694
200 California Hall,Berkeley,1,2,9,1,University of California-Berkeley,37.871519,12,-122.260401,-2,1,8,4127,25774,1,CA,246609159,110635,8344,94720
One Shields Avenue,Davis,1,2,9,1,University of California-Davis,38.539895,23,-121.751958,-2,1,8,5172,25666,1,CA,272423919,110644,11029,95616-8678
501 Aldrich Hall,Irvine,1,2,9,1,University of California-Irvine,33.648434,12,-117.841248,-2,1,8,5067,22216,1,CA,234813698,110653,9597,92697
405 Hilgard Ave,Los Angeles,1,2,9,1,University of California-Los Angeles,34.068892,11,-118.443901,-2,1,8,5608,27941,1,CA,272770751,110662,10127,90095-1405
900 University Ave,Riverside,1,2,9,1,University of California-Riverside,33.97588,11,-117.331098,-2,1,8,4001,18539,1,CA,232888475,110671,10456,92521
9500 Gilman Dr,La Jolla,1,2,9,1,University of California-San Diego,32.876598,11,-117.237793,-2,1,8,4570,22676,1,CA,237851983,110680,9691,92093
5221 Cheadle Hall,Santa Barbara,1,2,9,1,University of California-Santa Barbara,34.415402,22,-119.848031,-2,1,8,4722,18977,1,CA,184960082,110705,7208,93106
1156 High St,Santa Cruz,1,2,9,1,University of California-Santa Cruz,36.997258,13,-122.067993,-2,1,8,3817,15978,1,CA,183318873,110714,7124,95064-1011
1115 15th St,Modesto,3,2,2,3,California Beauty School,37.645217,12,-120.99689,-2,1,8,39,163,9,CA,397051,110875,100,95354
4881 E University Ave,Fresno,2,2,5,1,California Christian College,36.767596,11,-119.732752,-2,1,8,2,35,2,CA,96895,110918,19,93703-3599
6602 Convoy Court Ste 100,San Diego,2,2,5,1,California College San Diego,32.83529,11,-117.167121,-2,1,8,118,1164,2,CA,17762824,110945,833,92111-1009
350 Rhode Island Street,San Francisco,3,2,3,2,Le Cordon Bleu College of Culinary Arts-San Francisco,37.765415,11,-122.402643,-2,1,8,107,605,6,CA,1366925,111009,246,94103
"8011 University Avenue, Suite A-2",La Mesa,3,2,2,3,California Hair Design Academy,32.765221,21,-117.024261,-2,1,8,84,345,9,CA,692937,111054,171,91941-5055
24700 W McBean Pky,Valencia,2,2,9,1,California Institute of the Arts,34.393337,21,-118.567303,-2,1,8,180,950,2,CA,10818574,111081,317,91355-2397
200 Maritime Academy Dr,Vallejo,1,2,5,1,California Maritime Academy,38.069061,12,-122.231551,-2,1,8,196,973,1,CA,4423443,111188,366,94590
4200 Farm Hill Blvd.,Redwood City,1,2,4,2,Canada College,37.447365,21,-122.265549,-2,1,8,259,6655,4,CA,6312781,111434,1042,94061-1099
26455 Rockwell Canyon Rd,Santa Clarita,1,2,3,2,College of the Canyons,34.403121,21,-118.569524,-2,1,8,1379,16049,4,CA,20310662,111461,3658,91355-1899
12471 Valley View,Garden Grove,3,2,2,3,Career Academy of Beauty,33.781018,21,-118.031697,-2,1,8,49,306,9,CA,528171,111513,160,92845
6725 Kester Ave,Van Nuys,2,2,3,2,Casa Loma College-Van Nuys,34.195438,11,-118.448335,-2,1,8,112,939,5,CA,2704711,111638,497,91405
4153 Market Street,San Diego,2,2,2,3,CET-San Diego,32.711715,11,-117.122496,-2,1,8,114,445,8,CA,1078262,111708,294,92102
701 Vine St,San Jose,2,2,2,3,CET-Sobrato,37.322723,11,-121.88698,-2,1,8,243,747,8,CA,1823644,111717,472,95110
294 S 3rd St,El Centro,2,2,2,3,CET-El Centro,32.790908,13,-115.549079,-2,1,8,251,460,8,CA,2501763,111726,210,92243
1430 Cooley Court,San Bernardino,2,2,2,3,CET-San Bernardino,34.075136,12,-117.268738,-2,1,8,98,281,8,CA,869532,111744,198,92408
10 Blanca Lane,Watsonville,2,2,2,3,CET-Watsonville,36.931833,13,-121.767991,-2,1,8,117,215,8,CA,317960,111762,83,95076
7800 Arroyo Cir,Gilroy,2,2,2,3,CET-Gilroy,37.015671,23,-121.561429,-2,1,8,118,272,8,CA,1732981,111771,127,95020
421 Monterey St,Salinas,2,2,2,3,CET-Salinas,36.671635,12,-121.652791,-2,1,8,32,156,8,CA,254802,111799,65,93901
11110 Alondra Blvd,Norwalk,1,2,4,2,Cerritos College,33.88584,21,-118.097263,-2,1,8,1181,20719,4,CA,46447821,111887,9750,90650-6298
3000 College Heights Blvd,Ridgecrest,1,2,3,2,Cerro Coso Community College,35.567763,41,-117.667706,-2,1,8,203,4549,4,CA,4291659,111896,802,93555-9571
25555 Hesperian Blvd,Hayward,1,2,3,2,Chabot College,37.642513,12,-122.106969,-2,1,8,798,13224,4,CA,18406514,111920,3367,94545
5885 Haven Ave,Rancho Cucamonga,1,2,4,2,Chaffey College,34.14705,21,-117.573086,-2,1,8,946,17804,4,CA,32992947,111939,6557,91737-3002
One University Dr.,Orange,2,2,9,1,Chapman University,33.793678,12,-117.851481,-2,1,8,1273,5681,2,CA,99048246,111948,1156,92866
1731 E 120th St,Los Angeles,2,2,8,1,Charles R Drew University of Medicine and Science,33.925658,21,-118.242791,-2,1,8,1,108,2,CA,395730,111966,56,90059
1530 Concordia West,Irvine,2,2,7,1,Concordia University-Irvine,33.6535,12,-117.81063,-2,1,8,300,1738,2,CA,19139645,112075,435,92612-3203
2100 Greenfield Dr,El Cajon,2,2,6,1,San Diego Christian College,32.799999,21,-116.903073,-2,1,8,93,729,2,CA,6633700,112084,472,92019-1157
1000 W Foothill Blvd,Glendora,1,2,4,2,Citrus College,34.135487,21,-117.885266,-2,1,8,742,11750,4,CA,20907394,112172,3823,91741-1899
7518 Baird Way,Citris Heights,3,2,2,3,Citrus Heights Beauty College,38.7131,21,-121.289501,-2,1,8,96,154,9,CA,199979,112181,50,95610-1410
50 Phelan Ave,San Francisco,1,2,3,2,City College of San Francisco,37.725953,11,-122.451155,-2,1,8,1639,30139,4,CA,42753636,112190,7778,94112-1898
500 E 9th St,Claremont,2,2,7,1,Claremont McKenna College,34.102323,21,-117.706593,-2,1,8,291,1264,2,CA,22064217,112260,147,91711-6400
6500 S. Mooney Blvd.,Visalia,3,2,1,3,Milan Institute-Visalia,36.27164,12,-119.312151,-2,1,8,403,585,9,CA,1546484,112288,415,93277
1452 David E Cook Way,Clovis,1,2,2,3,Clovis Adult Education,36.836915,21,-119.69019,-2,1,8,485,1584,7,CA,1022000,112367,196,93611
11460 Warner Ave.,Fountain Valley,1,2,3,2,Coastline Community College,33.609771,13,-117.861844,-2,1,8,131,9380,4,CA,9921691,112385,1645,92708-2597
1175 Bordeaux  Drive,Sunnyvale,3,2,7,1,Cogswell College,37.407027,12,-122.024177,-2,1,8,51,391,3,CA,2630377,112394,156,94089
8888 Balboa Ave,San Diego,2,2,7,1,Coleman University,32.821962,11,-117.136493,-2,1,8,58,667,2,CA,1648048,112446,325,92123-1506
102 N Glassell St,Orange,3,2,2,3,COBA Academy,33.788258,12,-117.85348,-2,1,8,30,72,9,CA,32469,112455,11,92866
11600 Columbia College Dr,Sonora,1,2,3,2,Columbia College,38.030361,41,-120.387603,-2,1,8,270,2667,4,CA,4111484,112561,769,95370
18618 Oxnard St,Tarzana,2,2,5,1,Columbia College-Hollywood,34.179596,11,-118.538394,-2,1,8,46,359,2,CA,979462,112570,174,91356-1411
1111 East Artesia Blvd.,Compton,1,2,3,2,El Camino College-Compton Center,33.876665,21,-118.209186,-2,1,8,313,7510,4,CA,10081885,112686,1706,90221-5393
2600 Mission Bell Dr,San Pablo,1,2,3,2,Contra Costa College,37.968623,21,-122.342386,-2,1,8,316,6899,4,CA,11171260,112826,1976,94806-3195
8401 Center Parkway,Sacramento,1,2,4,2,Cosumnes River College,38.453836,11,-121.422971,-2,1,8,588,14143,4,CA,20379411,113096,3430,95823-5799
11711 Sand Canyon Road,Yucaipa,1,2,4,2,Crafton Hills College,34.038513,41,-117.100826,-2,1,8,368,5280,4,CA,6074361,113111,1066,92339-1799
Highway 1,San Luis Obispo,1,2,4,2,Cuesta College,35.329859,23,-120.741624,-2,1,8,922,9834,4,CA,10990661,113193,1656,93403-8106
900 Rancho San Diego Pky,El Cajon,1,2,3,2,Cuyamaca College,32.743072,21,-116.941044,-2,1,8,404,8431,4,CA,11891407,113218,2189,92019
9200 Valley View,Cypress,1,2,4,2,Cypress College,33.827625,21,-118.023889,-2,1,8,724,15647,4,CA,23606234,113236,4149,90630-5897
21250 Stevens Creek Blvd.,Cupertino,1,2,4,2,De Anza College,37.319176,13,-122.045365,-2,1,8,2686,23847,4,CA,24800574,113333,3789,95014
2627 W Florida Ave-Ste 100,Hemet,3,2,2,3,Marinello Schools of Beauty-Hemet,33.746002,22,-116.999892,-2,1,8,665,2453,9,CA,7837815,113397,1972,92545
72261 Hwy 111 Ste 121-B,Palm Desert,3,2,2,3,International School of Beauty Inc,33.729555,21,-116.403928,-2,1,8,129,350,9,CA,893194,113449,190,92260-2740
131 H Street,Blue Lake,2,2,7,1,Dell'Arte International School of Physical Theatre,40.880871,41,-123.988878,-2,1,8,0,24,2,CA,0,113537,0,95525-0816
43-500 Monterey Ave,Palm Desert,1,2,3,2,College of the Desert,33.732484,21,-116.38761,-2,1,8,623,9075,4,CA,21479752,113573,4122,92260
8555 Commerce Ave,San Diego,3,2,5,1,Design Institute of San Diego,32.731022,11,-117.149808,-2,1,8,8,204,3,CA,603734,113582,118,92121
321 Golf Club Rd,Pleasant Hill,1,2,4,2,Diablo Valley College,37.968035,21,-122.069861,-2,1,8,1301,20329,4,CA,16776732,113634,2821,94523
50 Acacia Ave,San Rafael,2,2,7,1,Dominican University of California,37.980014,13,-122.514654,-2,1,8,254,1584,2,CA,27373819,113698,512,94901-2298
1301 Avenida Cesar Chavez,Monterey Park,1,2,4,2,East Los Angeles College,34.039205,13,-118.148384,-2,1,8,1027,36974,4,CA,53654525,113856,10096,91754-6099
955 Monroe St,Santa Clara,3,2,2,3,Marinello Schools of Beauty-Santa Clara,37.347964,12,-121.947773,-2,1,8,205,1142,9,CA,3351520,113908,851,95050
16007 Crenshaw Blvd,Torrance,1,2,4,2,El Camino Community College District,33.885586,21,-118.326623,-2,1,8,1785,23405,4,CA,33988751,113980,6027,90506
1622 N. Highland Ave,Hollywood,3,2,1,3,Elegance International,34.062216,11,-118.338332,-2,1,8,89,201,9,CA,473927,114044,132,90028-6106
200 N. San Fernando Blvd,Burbank,3,2,2,3,Marinello Schools of Beauty-Burbank,34.181902,12,-118.309749,-2,1,8,154,676,9,CA,1972117,114071,520,91502
24741 Alessandro Blvd,Moreno Valley,3,2,2,3,Marinello Schools of Beauty-Moreno Valley,33.915981,21,-117.228072,-2,1,8,125,528,9,CA,1800352,114080,418,92553
3035 Cleveland Ave,Santa Rosa,3,2,3,2,Empire College School of Business,38.467789,12,-122.728642,-2,1,8,475,661,6,CA,864835,114123,211,95403-2126
3095 Yerba Buena Rd,San Jose,1,2,3,2,Evergreen Valley College,37.301736,11,-121.766686,-2,1,8,541,9295,4,CA,17228935,114266,2931,95135-1598
919 S Grand Ave,Los Angeles,3,2,5,1,Fashion Institute of Design & Merchandising-Los Angeles,34.044209,11,-118.25993,-2,1,8,630,3743,3,CA,10355185,114354,1190,90015-1421
55 Stockton St,San Francisco,3,2,5,1,Fashion Institute of Design & Merchandising-San Francisco,37.786324,11,-122.406503,-2,1,8,128,750,3,CA,2522717,114390,265,94108-5805
17590 Gillette Avenue,Irvine,3,2,3,2,Fashion Institute of Design & Merchandising-Orange County,33.691963,12,-117.852254,-2,1,8,166,293,6,CA,1157657,114415,136,92614-5610
570 Golden Eagle Ave,Quincy,1,2,3,2,Feather River Community College District,39.952395,41,-120.970877,-2,1,8,249,1546,4,CA,3044541,114433,496,95971-9124
1515 Sports Drive    Ste 100,Sacramento,3,2,2,3,Federico Beauty Institute,38.64883,21,-121.497761,-2,1,8,66,403,9,CA,826053,114460,243,95834
1110 N Tustin St,Orange,3,2,2,3,Hair California Beauty Academy,33.805786,12,-117.836692,-2,1,8,92,105,9,CA,8325,114628,2,92867
12345 El Monte Rd,Los Altos Hills,1,2,4,2,Foothill College,37.361104,21,-122.12833,-2,1,8,1161,15247,4,CA,9012699,114716,1318,94022
831 F St,Eureka,3,2,2,3,Fredrick and Charles Beauty College,40.798811,33,-124.165778,-2,1,8,43,113,9,CA,322691,114761,76,95501
1101 E. University Ave,Fresno,1,2,3,2,Fresno City College,36.767516,11,-119.795129,-2,1,8,1845,21630,4,CA,44764641,114789,8265,93741
1717 S Chestnut Ave,Fresno,2,2,7,1,Fresno Pacific University,36.725279,11,-119.731953,-2,1,8,238,2399,2,CA,35697351,114813,1382,93702-4709
321 E Chapman Avenue,Fullerton,1,2,3,2,Fullerton College,33.876794,21,-117.916986,-2,1,8,769,19624,4,CA,29569138,114859,4878,92832-2095
5055 Santa Teresa Blvd,Gilroy,1,2,4,2,Gavilan College,36.973274,23,-121.568174,-2,1,8,412,6669,4,CA,8263490,114938,1555,95020
5345 Armada Dr,Carlsbad,2,2,1,3,Gemological Institute of America-Carlsbad,33.131313,12,-117.318765,-2,1,8,205,386,8,CA,454794,114947,36,92008
1500 N Verdugo Rd,Glendale,1,2,3,2,Glendale Community College,34.166422,12,-118.228251,-2,1,8,1222,15978,4,CA,33908819,115001,6550,91208-2894
240 North Brand Boulevard Lower Level,Glendale,3,2,2,3,Glendale Career College,34.14969,12,-118.254561,-2,1,8,403,524,9,CA,1487595,115010,351,91203
536 Mission Street,San Francisco,2,2,9,1,Golden Gate University-San Francisco,37.789208,11,-122.398785,-2,1,8,0,521,2,CA,2467142,115083,181,94105-2968
15744 Goldenwest St.,Huntington Beach,1,2,3,2,Golden West College,33.733775,21,-118.003036,-2,1,8,1084,12332,4,CA,19488277,115126,3414,92647-2710
8800 Grossmont College Dr,El Cajon,1,2,4,2,Grossmont College,32.816077,21,-117.007292,-2,1,8,1241,17755,4,CA,23665932,115296,4044,92020-1799
208 W Highland Ave,San Bernardino,3,2,2,3,Salon Success Academy-San Bernardino,34.135988,12,-117.287615,-2,1,8,27,54,9,CA,163873,115357,41,92405
411 Central Avenue,Salinas,1,2,3,2,Hartnell College,36.673052,12,-121.668763,-2,1,8,708,8380,4,CA,15763310,115393,2704,93901
301 Platt Blvd.,Claremont,2,2,5,1,Harvey Mudd College,34.106137,21,-117.710594,-2,1,8,198,784,2,CA,15351572,115409,103,91711
2910 Prospect Park Dr,Rancho Cordova,3,2,3,2,Heald College-Rancho Cordova,38.594382,13,-121.280086,-2,1,8,46,1343,6,CA,6041884,115454,1060,95670
255 W Bullard,Fresno,3,2,3,2,Heald College-Fresno,36.822401,11,-119.795525,-2,1,8,140,2011,6,CA,9360213,115472,1787,93704
341 Great Mall Pky,Milpitas,3,2,3,2,Heald College-San Jose,37.410897,13,-121.893911,-2,1,8,94,1716,6,CA,6947928,115490,1302,95035-8008
875 Howard Street Suite 100,San Francisco,3,2,3,2,Heald College-San Francisco,37.781933,11,-122.404299,-2,1,8,51,1239,6,CA,4556352,115515,913,94103
5130 Commercial Circle,Concord,3,2,3,2,Heald College-Concord,38.018938,21,-122.030047,-2,1,8,119,1672,6,CA,6822012,115533,1272,94520-0522
6317 Mission St,Daly City,3,2,2,3,Hilltop Beauty School,37.705545,21,-122.461674,-2,1,8,28,224,9,CA,656120,115658,159,94014
3500 Mountain Blvd,Oakland,2,2,8,1,Holy Names University,37.802654,11,-122.18717,-2,1,8,132,890,2,CA,13653566,115728,411,94619-1699
1 Harpst Street,Arcata,1,2,7,1,Humboldt State University,40.8741,33,-124.0814,-2,1,8,1199,7621,1,CA,42376384,115755,3934,95521-8299
6650 Inglewood Ave,Stockton,2,2,9,1,Humphreys College-Stockton and Modesto Campuses,38.011051,11,-121.316401,-2,1,8,95,808,2,CA,10005152,115773,610,95207-3896
380 E. Aten Road,Imperial,1,2,3,2,Imperial Valley College,32.827563,41,-115.503903,-2,1,8,897,7706,4,CA,24301525,115861,4330,92251-0158
2400 Walsh Avenue,Santa Clara,3,2,2,3,Institute for Business and Technology,37.368642,12,-121.969541,-2,1,8,271,428,9,CA,846211,115931,377,95051-1303
1061 Camelback Rd,Newport Beach,3,2,7,1,Interior Designers Institute,33.641393,13,-117.865722,-2,1,8,0,317,3,CA,1056344,116226,52,92660
1358 5th St,Santa Monica,3,2,2,3,Toni & Guy Hairdressing Academy-Santa Monica,34.017466,13,-118.494898,-2,1,8,135,443,9,CA,1105286,116350,266,90401
5500 Irvine Center Drive,Irvine,1,2,3,2,Irvine Valley College,33.675079,12,-117.778575,-2,1,8,1191,13208,4,CA,10856749,116439,1651,92618-0301
"401 Mile of Cars Way, Suite 100",National City,3,2,5,1,ITT Technical Institute-National City,32.66165,21,-117.105941,-2,1,8,93,1385,3,CA,3745066,116466,839,91950
650 W. Cienega Ave.,San Dimas,3,2,5,1,ITT Technical Institute-San Dimas,34.102405,21,-117.818401,-2,1,8,27,451,3,CA,1814970,116475,343,91773
"4000 W. Metropolitian Dr., Suite 100",Orange,3,2,5,1,ITT Technical Institute-Orange,33.78006,12,-117.896161,-2,1,8,82,926,3,CA,3584880,116484,670,92868
1073 E Main St,El Cajon,3,2,4,2,Bellus Academy-El Cajon,32.794827,21,-116.945728,-2,1,8,68,288,6,CA,723731,116563,151,92021
100 Ellinwood Way,Pleasant Hill,2,2,9,1,John F Kennedy University,37.881794,21,-122.183972,-2,1,8,0,275,2,CA,806241,116712,141,94523-4817
15600 Mulholland Dr,Los Angeles,2,2,7,1,American Jewish University,34.128099,11,-118.471764,-2,1,8,12,140,2,CA,2229679,116846,43,90077-1519
995 N Reed Ave,Reedley,1,2,3,2,Reedley College,36.605968,32,-119.45993,-2,1,8,1672,13737,4,CA,25592448,117052,4297,93654
1100 W. Covina Blvd.,San Dimas,2,2,7,1,Life Pacific College,34.089421,21,-117.830997,-2,1,8,67,586,2,CA,2738171,117104,231,91773-3298
7650 Mission Valley Road,San Diego,3,2,5,1,The Art Institute of California-Argosy University San Diego,32.778278,11,-117.155395,-2,1,8,170,1979,3,CA,8688776,117113,1224,92108-4423
1950 Third St,La Verne,2,2,9,1,University of La Verne,34.10086,21,-117.772634,-2,1,8,622,5044,2,CA,57814855,117140,2344,91750-4401
2222 Laguna Canyon Rd,Laguna Beach,2,2,7,1,Laguna College of Art and Design,33.561448,41,-117.772564,-2,1,8,76,457,2,CA,3842981,117168,188,92651
One College Drive,South Lake Tahoe,1,2,3,2,Lake Tahoe Community College,38.926864,41,-119.971631,-2,1,8,148,2474,4,CA,2889608,117195,553,96150
44646 N 10th St W,Lancaster,3,2,2,3,Lancaster Beauty School,34.695646,21,-118.148664,-2,1,8,32,162,9,CA,383934,117238,88,93534
900 Fallon Sreet,Oakland,1,2,3,2,Laney College,37.796205,11,-122.262434,-2,1,8,342,11387,4,CA,15631705,117247,2569,94607
Hwy 139,Susanville,1,2,3,2,Lassen Community College,40.431327,41,-120.631169,-2,1,8,158,2074,4,CA,3121930,117274,417,96130
401 15th Street,Oakland,2,2,9,1,Lincoln University,37.804788,11,-122.269745,-2,1,8,37,114,2,CA,1099630,117557,42,94612-2801
2075 E. Madison Avenue,El Cajon,2,2,9,1,Southern California Seminary,32.803259,21,-116.900531,-2,1,8,0,81,2,CA,35000,117575,20,92019-1108
4500 Riverwalk Parkway,Riverside,2,2,9,1,La Sierra University,33.908834,11,-117.497071,-2,1,8,499,2048,2,CA,47705333,117627,987,92515-8247
11139 Anderson Street,Loma Linda,2,2,9,1,Loma Linda University,34.051518,21,-117.261056,-2,1,8,0,1267,2,CA,5188291,117636,368,92350
4901 E. Carson St.,Long Beach,1,2,4,2,Long Beach City College,33.831741,11,-118.135819,-2,1,8,2154,24839,4,CA,57841327,117645,10935,90808-1706
16200 East Amber Valley Drive,Whittier,2,2,9,1,Southern California University of Health Sciences,33.924638,21,-117.985447,-2,1,8,0,424,2,CA,0,117672,0,90604
1111 Figueroa Place,Wilmington,1,2,3,2,Los Angeles Harbor College,33.784201,11,-118.28186,-2,1,8,432,9637,4,CA,16579137,117690,3352,90744-2397
6201 Winnetka Ave,Woodland Hills,1,2,3,2,Los Angeles Pierce College,34.184184,11,-118.577194,-2,1,8,868,19872,4,CA,34152219,117706,6703,91371-0002
1600 W Imperial Hwy.,Los Angeles,1,2,3,2,Los Angeles Southwest College,33.929586,21,-118.304674,-2,1,8,137,6736,4,CA,12538475,117715,2548,90047-4899
400 W Washington Blvd,Los Angeles,1,2,3,2,Los Angeles Trade Technical College,34.032623,11,-118.269113,-2,1,8,410,13662,4,CA,27322758,117724,5069,90015-4181
5800 Fulton Avenue,Valley Glen,1,2,4,2,Los Angeles Valley College,34.176406,11,-118.421446,-2,1,8,649,18576,4,CA,30687991,117733,5924,91401-4096
21726 Placerita Canyon Road,Santa Clarita,2,2,9,1,The Master's College and Seminary,34.38214,21,-118.517422,-2,1,8,208,1134,2,CA,13367707,117751,346,91321-1200
855 N Vermont Ave,Los Angeles,1,2,3,2,Los Angeles City College,34.087301,11,-118.292169,-2,1,8,660,20302,4,CA,35192708,117788,6657,90029
1237 N. Mission Rd.,Los Angeles,1,2,3,2,Los Angeles County College of Nursing and Allied Health,34.061605,11,-118.211418,-2,1,8,0,211,4,CA,218633,117803,79,90033-1084
13356 Eldridge Avenue,Sylmar,1,2,3,2,Los Angeles Mission College,34.314944,11,-118.419087,-2,1,8,361,9657,4,CA,16695073,117867,3256,91342-3200
2700 East Leland Road,Pittsburg,1,2,3,2,Los Medanos College,38.005552,21,-121.861122,-2,1,8,516,8554,4,CA,12985736,117894,2316,94565
1170 Market St,San Francisco,3,2,7,1,The Art Institute of California-Argosy University San Francisco,37.803958,11,-122.417185,-2,1,8,164,1440,3,CA,6185553,117928,863,94102-4908
One Lmu Drive,Los Angeles,2,2,9,1,Loyola Marymount University,33.970633,11,-118.415655,-2,1,8,1275,6084,2,CA,83127054,117946,1170,90045-2659
470 East Thompson Blvd,Ventura,3,2,2,3,Lu Ross Academy,34.278034,12,-119.293952,-2,1,8,84,392,9,CA,992883,117955,251,93001-2729
3756 N Blackstone Ave,Fresno,3,2,2,3,Manchester Beauty College,36.792868,11,-119.79116,-2,1,8,7,135,9,CA,38759,118116,7,93726
1400 W Inyo St,Tulare,3,2,2,3,Tulare Beauty College,36.204102,22,-119.367947,-2,1,8,10,68,9,CA,37021,118125,8,93274
2935 F St,Bakersfield,3,2,2,3,Lyles Bakersfield College of Beauty,35.386525,11,-119.023903,-2,1,8,22,123,9,CA,253015,118134,60,93301
6735 N First Ave Ste 112,Fresno,3,2,2,3,Lyles Fresno College of Beauty,36.836251,11,-119.773747,-2,1,8,10,114,9,CA,186271,118143,51,93710
186 Wikiup Dr,Santa Rosa,3,2,2,3,Lytles Redwood Empire Beauty College Inc,38.508581,21,-122.758546,-2,1,8,42,206,9,CA,445128,118161,79,95403
6006 N. El Dorado Street,Stockton,3,2,2,3,MTI Business College Inc,38.007318,11,-121.308527,-2,1,8,145,145,9,CA,804750,118189,145,95207-4349
5221 Madison Ave,Sacramento,3,2,3,2,MTI College,38.661377,21,-121.342568,-2,1,8,336,812,6,CA,1900326,118198,531,95841-9817
"4330 Watt Ave., Suite 400",Sacramento,3,2,3,2,Kaplan College-Sacramento,38.644462,21,-121.380453,-2,1,8,298,895,6,CA,2205089,118259,513,95821
9055 Balboa Avenue,San Diego,3,2,3,2,Kaplan College-San Diego,32.821707,11,-117.133017,-2,1,8,402,1981,6,CA,3156055,118277,720,92123
2022 University Dr,Vista,3,2,3,2,Kaplan College-Vista,33.17244,21,-117.220816,-2,1,8,661,1357,6,CA,2086239,118286,469,92083-7736
835 College Ave,Kentfield,1,2,3,2,College of Marin,37.955014,21,-122.549936,-2,1,8,291,7058,4,CA,8441889,118347,1735,94904-2590
1241 S. Soto Street Suite #101,Los Angeles,3,2,2,3,Marinello Schools of Beauty-Los Angeles,34.027512,11,-118.219865,-2,1,8,1050,4200,9,CA,14349736,118356,3420,90023
30800 Palos Verdes Drive East,Rancho Palos Verdes,2,2,7,1,Marymount California University,33.73463,21,-118.333404,-2,1,8,332,1001,2,CA,15083515,118541,406,90275-6299
1000 Hensley Creek Road,Ukiah,1,2,3,2,Mendocino College,39.19119,41,-123.22903,-2,1,8,240,3788,4,CA,7475177,118684,1355,95482
1000 El Camino Real,Atherton,2,2,5,1,Menlo College,37.452906,21,-122.181444,-2,1,8,168,714,2,CA,13841661,118693,238,94027-4301
3600 M St,Merced,1,2,4,2,Merced College,37.335348,13,-120.476726,-2,1,8,939,10269,4,CA,26114977,118718,4861,95348-2898
12500 Campus Dr,Oakland,1,2,4,2,Merritt College,37.789088,11,-122.167335,-2,1,8,165,6113,4,CA,7919415,118772,1366,94619-3196
5000 MacArthur Blvd,Oakland,2,2,9,1,Mills College,37.782639,11,-122.18789,-2,1,8,207,937,2,CA,22143995,118888,438,94613
One Barnard Drive,Oceanside,1,2,3,2,MiraCosta College,33.191231,21,-117.302283,-2,1,8,1439,14723,4,CA,12588210,118912,1769,92056-3899
1087 Mission Street,San Francisco,3,2,2,3,Marinello Schools of Beauty-San Francisco,37.779467,11,-122.410416,-2,1,8,297,1079,9,CA,3505724,118921,858,94103
3000 Mission College Blvd,Santa Clara,1,2,4,2,Mission College,37.391323,12,-121.982174,-2,1,8,418,9879,4,CA,13499768,118930,2503,95054-1897
699 South C St,Oxnard,3,2,2,3,Modern Beauty Academy,34.195384,12,-119.181423,-2,1,8,25,71,9,CA,247608,118958,61,93030
"6180 Laurel Canyon Boulevard, Suite 101",North Hollywood,3,2,4,2,Kaplan College-North Hollywood,34.182673,11,-118.396131,-2,1,8,579,1319,6,CA,2234088,118967,574,91606-3231
435 College Ave,Modesto,1,2,3,2,Modesto Junior College,37.652042,12,-121.009723,-2,1,8,1284,16984,4,CA,35785901,118976,6626,95350-5800
3815 Telegraph Ave,Oakland,3,2,2,3,Moler Barber College,37.826826,11,-122.265094,-2,1,8,31,127,9,CA,814131,118994,123,94609-2419
460 Pierce Street,Monterey,2,2,7,1,Monterey Institute of International Studies,36.599827,22,-121.896813,-2,1,8,0,22,2,CA,154568,119058,8,93940
980 Fremont St,Monterey,1,2,4,2,Monterey Peninsula College,36.590826,22,-121.885774,-2,1,8,548,10048,4,CA,8108826,119067,1304,93940-4799
7075 Campus Rd,Moorpark,1,2,4,2,Moorpark College,34.300018,22,-118.836624,-2,1,8,1656,14605,4,CA,14555311,119137,2564,93021-1695
1100 N Grand Ave,Walnut,1,2,4,2,Mt San Antonio College,34.043786,21,-117.8437,-2,1,8,2187,28035,4,CA,59340146,119164,10826,91789-1399
12001 Chalon Rd,Los Angeles,2,2,9,1,Mount St Mary's College,34.082112,11,-118.480471,-2,1,8,530,2458,2,CA,37027005,119173,1444,90049-1599
1499 N. State St.,San Jacinto,1,2,3,2,Mt San Jacinto Community College District,33.807364,22,-116.970063,-2,1,8,713,14180,4,CA,25238230,119216,5163,92583-2399
"123 Camino de la Reina, #100 North",San Diego,3,2,2,3,Mueller College,32.76457,11,-117.163741,-2,1,8,33,160,9,CA,199195,119234,90,92108-3002
6752 Hollywood Blvd.,Hollywood,3,2,5,1,Musicians Institute,34.101497,11,-118.337685,-2,1,8,356,1288,3,CA,2421093,119270,398,90028
2277 Napa-Vallejo Hwy,Napa,1,2,3,2,Napa Valley College,38.27254,13,-122.272565,-2,1,8,474,6287,4,CA,9514596,119331,1677,94558-6236
814 Mission St  Suite 500,San Francisco,3,2,2,3,Everest College-San Francisco,37.784524,11,-122.404815,-2,1,8,125,552,9,CA,1884449,119340,368,94103-9946
18040 Sherman Way Ste 400,Reseda,3,2,3,2,Everest College-Reseda,34.200824,11,-118.526677,-2,1,8,102,699,6,CA,1851703,119359,482,91335-4631
3460 Wilshire Blvd Ste 500,Los Angeles,3,2,3,2,Everest College-LA Wilshire,34.061262,11,-118.299345,-2,1,8,29,279,6,CA,800921,119368,216,90010
1245 South Winchester Blvd #102,San Jose,3,2,2,3,Everest College-San Jose,37.302842,11,-121.950651,-2,1,8,102,475,9,CA,1546564,119438,301,95128
"1045 W. Redondo Beach Boulevard, Suite 275",Gardena,3,2,2,3,Everest College-Gardena,33.893072,13,-118.292896,-2,1,8,266,881,9,CA,3464180,119456,725,90247
2215 W Mission Rd,Alhambra,3,2,2,3,Everest College-Alhambra,34.080181,21,-118.148684,-2,1,8,229,1052,9,CA,3750773,119465,845,91803
"217 E. Club Center Drive, Ste. A",San Bernardino,3,2,3,2,Everest College-San Bernardino,34.059754,12,-117.28222,-2,1,8,117,821,6,CA,2530042,119508,612,92408
14271 Story Rd,San Jose,3,2,7,1,The National Hispanic University,37.359057,11,-121.815921,-2,1,8,56,500,3,CA,2302995,119544,299,95127-3823
5900 Doyle Street,Emeryville,3,2,2,3,National Holistic Institute,37.841898,21,-122.287672,-2,1,8,245,870,9,CA,2827820,119553,517,94608-2008
11255 North Torrey Pines Road,La Jolla,2,2,9,1,National University,32.909469,11,-117.244243,-2,1,8,250,9482,2,CA,12413976,119605,2542,92037-1011
1249 F St,San Diego,3,2,7,1,Newschool of Architecture and Design,32.71331,11,-117.153305,-2,1,8,16,389,3,CA,2256145,119775,239,92101
16860 Devonshire Blvd,Granada Hills,3,2,2,3,Newberry School of Beauty,34.25748,11,-118.499469,-2,1,8,70,315,9,CA,521402,119845,164,91344-7401
124 Floyd Ave,Modesto,3,2,2,3,Adrian's College of Beauty Modesto,37.677778,12,-120.992753,-2,1,8,204,431,9,CA,1181182,119951,311,95350-2381
170  W Holt Ave,Pomona,3,2,2,3,North-West College-Pomona,34.06203,21,-117.751861,-2,1,8,453,467,9,CA,1479421,120069,398,91768
2121 W Garvey Ave,West Covina,3,2,2,3,North-West College-West Covina,34.072071,21,-117.949583,-2,1,8,826,883,9,CA,2641984,120078,514,91790
530 E Union,Pasadena,3,2,2,3,North-West College-Pasadena,34.146907,12,-118.139266,-2,1,8,298,346,9,CA,1047521,120087,298,91101
47671 Westinghouse Drive,Fremont,2,2,9,1,Northwestern Polytechnic University,37.47857,21,-121.925457,-2,1,8,47,179,2,CA,1000,120166,0,94539
1500 Ralston Ave,Belmont,2,2,7,1,Notre Dame de Namur University,37.517501,21,-122.284618,-2,1,8,182,1183,2,CA,13771952,120184,497,94002-1908
1600 Campus Rd,Los Angeles,2,2,7,1,Occidental College,34.126224,11,-118.210783,-2,1,8,530,2070,2,CA,43167819,120254,445,90041-3392
1575 S Coast Hwy,Oceanside,3,2,2,3,Oceanside College of Beauty,33.178889,21,-117.365276,-2,1,8,26,121,9,CA,260904,120272,55,92054-5356
43600 Mission Blvd,Fremont,1,2,3,2,Ohlone College,37.527956,21,-121.914597,-2,1,8,704,10527,4,CA,9896890,120290,1697,94539-0390
2701 Fairview Road,Costa Mesa,1,2,4,2,Orange Coast College,33.670171,12,-117.911401,-2,1,8,1349,21088,4,CA,25762849,120342,4127,92626
9045 Lincoln Blvd,Los Angeles,2,2,7,1,Otis College of Art and Design,33.956607,11,-118.416615,-2,1,8,183,1105,2,CA,16125414,120403,536,90045-3505
4000 S Rose Ave,Oxnard,1,2,3,2,Oxnard College,34.164899,12,-119.15549,-2,1,8,422,7060,4,CA,13186860,120421,2493,93033-6699
2500 E Nutwood Ave,Fullerton,2,2,7,1,Hope International University,33.87616,21,-117.88573,-2,1,8,113,916,2,CA,8297199,120537,457,92831-3199
"4393 Imperial Avenue, Suite 100",San Diego,3,2,4,2,Concorde Career College-San Diego,32.70406,11,-117.10187,-2,1,8,786,1899,6,CA,3383395,120661,717,92113-1964
1791 Arastradero Rd,Palo Alto,2,2,9,1,Palo Alto University,37.383251,41,-122.186022,-2,1,8,0,170,2,CA,773988,120698,78,94304-1337
55 Eureka Street,Pasadena,2,2,8,1,Pacific Oaks College,34.153088,12,-118.15158,-2,1,8,0,374,2,CA,2428953,120768,239,91103
3450 Wilshire Blvd. Suite 500,Los Angeles,2,2,9,1,Pacific States University,34.0607,11,-118.299841,-2,1,8,1,19,2,CA,2362,120838,2,90010
One Angwin Ave,Angwin,2,2,7,1,Pacific Union College,38.57409,41,-122.449639,-2,1,8,290,1564,2,CA,20980772,120865,687,94508-9707
3601 Pacific Ave,Stockton,2,2,9,1,University of the Pacific,37.980624,11,-121.307296,-2,1,8,851,3867,2,CA,71508768,120883,1551,95211-0197
One College Drive,Blythe,1,2,3,2,Palo Verde College,33.661538,42,-114.651698,-2,1,8,80,2927,4,CA,2465661,120953,336,92225
1140 W. Mission,San Marcos,1,2,3,2,Palomar College,33.15019,21,-117.181718,-2,1,8,2008,24517,4,CA,24531650,120971,3867,92069-1487
1655 Willow Pass Road,Concord,3,2,2,3,Paris Beauty College,37.972204,21,-122.043458,-2,1,8,77,194,9,CA,151935,121017,44,94520
1570 E Colorado Blvd.,Pasadena,1,2,4,2,Pasadena City College,34.144552,12,-118.118196,-2,1,8,1506,22859,4,CA,35600150,121044,6419,91106-2003
24255 Pacific Coast Hwy,Malibu,2,2,9,1,Pepperdine University,34.041912,21,-118.707677,-2,1,8,787,3488,2,CA,73931926,121150,724,90263
1050 North Mills Avenue,Claremont,2,2,5,1,Pitzer College,34.103408,21,-117.705939,-2,1,8,261,1084,2,CA,14223132,121257,175,91711-6101
6250 El Cajon Blvd,San Diego,3,2,5,1,Platt College-San Diego,32.76373,11,-117.063483,-2,1,8,62,413,3,CA,1133776,121275,192,92115-3919
3900 Lomaland Dr,San Diego,2,2,8,1,Point Loma Nazarene University,32.713295,11,-117.251204,-2,1,8,600,2415,2,CA,29403145,121309,655,92106-2899
550 N College Ave,Claremont,2,2,5,1,Pomona College,34.098298,21,-117.711944,-2,1,8,399,1607,2,CA,34665602,121345,271,91711-6319
100 E College Ave,Porterville,1,2,3,2,Porterville College,36.049256,13,-119.014368,-2,1,8,406,3919,4,CA,11185802,121363,2061,93257
"19700 S. Vermont Avenue, Suite 100",Torrance,3,2,5,1,Westwood College-South Bay,33.85182,11,-118.289777,-2,1,8,49,659,3,CA,3166038,121381,556,90502
10801 E. Valley Mall,El Monte,3,2,2,3,Professional Institute of Beauty,34.075,21,-118.038,-2,1,8,40,189,9,CA,596922,121433,148,91731
1530 W. 17th Street,Santa Ana,1,2,3,2,Santa Ana College,33.759203,11,-117.888384,-2,1,8,1305,32353,4,CA,20732603,121619,3349,92706-3398
678 N Market St,Redding,3,2,2,3,Shasta School of Cosmetology,40.59708,13,-122.387211,-2,1,8,46,115,9,CA,385868,121637,81,96003
1200 E. Colton Ave,Redlands,2,2,9,1,University of Redlands,34.063571,13,-117.163847,-2,1,8,724,3452,2,CA,61104109,121691,862,92373-0999
7351 Tompkins Hill Rd,Eureka,1,2,4,2,College of the Redwoods,40.696744,41,-124.195075,-2,1,8,322,5344,4,CA,15186404,121707,2070,95501-9300
1385 E. Foothill Blvd,Upland,3,2,2,3,Salon Success Academy-Upland,34.108353,21,-117.631091,-2,1,8,71,390,9,CA,960273,121859,205,91786
2097 Compton Ave. Suite 201,Corona,3,2,2,3,Salon Success Academy-Corona,33.84778,12,-117.535451,-2,1,8,82,210,9,CA,562746,121868,154,92879
3600 Workman Mill Rd,Whittier,1,2,3,2,Rio Hondo College,34.019878,21,-118.033329,-2,1,8,967,16548,4,CA,26305279,121886,4717,90601-1616
4800 Magnolia Avenue,Riverside,1,2,3,2,Riverside City College,33.971481,11,-117.38054,-2,1,8,1034,17218,4,CA,27198226,121901,5540,92506
1005 Atlantic Avenue,Alameda,3,2,9,1,Argosy University-San Francisco Bay Area,37.781238,21,-122.267523,-2,1,8,8,146,3,CA,437785,121983,93,94501
8531 E Valley Blvd,Rosemead,3,2,2,3,Rosemead Beauty School,34.080756,21,-118.082793,-2,1,8,142,231,9,CA,478000,121992,72,91770-1639
440 Shatto Pl,Los Angeles,2,2,9,1,Dongguk University-Los Angeles,34.066226,11,-118.289927,-2,1,8,0,10,2,CA,13216,122117,10,90020-1704
3835 Freeport Blvd,Sacramento,1,2,4,2,Sacramento City College,38.541883,11,-121.49166,-2,1,8,1004,24381,4,CA,36767722,122180,6459,95822-1386
28000 Marguerite Pky,Mission Viejo,1,2,4,2,Saddleback College,33.551925,21,-117.664876,-2,1,8,1609,21726,4,CA,18452481,122205,3044,92692-3635
320 Middlefield Rd,Menlo Park,2,2,7,1,Saint Patrick's Seminary and University,37.45886,21,-122.167951,-2,1,8,0,6,2,CA,0,122250,0,94025
3100 Telegraph Avenue,Oakland,2,2,9,1,Samuel Merritt University,37.819955,11,-122.266854,-2,1,8,0,584,2,CA,2835670,122296,117,94609
1313 Park Boulevard,San Diego,1,2,3,2,San Diego City College,32.718855,11,-117.151641,-2,1,8,809,16797,4,CA,29717378,122339,5648,92101-4787
"1950 Camino Vida Roble, Ste. 125",Carlsbad,3,2,3,2,Golf Academy of America-Carlsbad,33.12291,12,-117.283394,-2,1,8,84,258,6,CA,708517,122366,106,92008
7250 Mesa College Dr,San Diego,1,2,4,2,San Diego Mesa College,32.804935,11,-117.169072,-2,1,8,1285,24302,4,CA,27128291,122375,4530,92111-4998
10440 Black Mountain Rd,San Diego,1,2,4,2,San Diego Miramar College,32.909546,11,-117.120888,-2,1,8,597,11355,4,CA,11917606,122384,2225,92126-2999
5500 Campanile Dr,San Diego,1,2,9,1,San Diego State University,32.77525,11,-117.071228,-2,1,8,3829,25990,1,CA,121168796,122409,10282,92182
5998 Alcala Park,San Diego,2,2,9,1,University of San Diego,32.77142,11,-117.188721,-2,1,8,1072,5457,2,CA,83793423,122436,986,92110-2492
800 Chestnut St,San Francisco,2,2,7,1,San Francisco Art Institute,37.803575,11,-122.417,-2,1,8,81,453,2,CA,2976490,122454,148,94133-2299
50 Oak Street,San Francisco,2,2,8,1,San Francisco Conservatory of Music,37.775322,11,-122.420143,-2,1,8,37,186,2,CA,3625430,122506,62,94102-6011
1600 Holloway Ave,San Francisco,1,2,9,1,San Francisco State University,37.721345,11,-122.477905,-2,1,8,3756,26449,1,CA,112242418,122597,11211,94132
2130 Fulton St,San Francisco,2,2,9,1,University of San Francisco,37.775564,11,-122.450977,-2,1,8,1352,6262,2,CA,81198831,122612,1644,94117-1080
5151 Pacific Ave,Stockton,1,2,4,2,San Joaquin Delta College,37.994643,11,-121.317226,-2,1,8,1352,17002,4,CA,38907801,122658,6904,95207
8344 W Mineral King Ave,Visalia,3,2,3,2,San Joaquin Valley College-Visalia,36.328049,41,-119.384981,-2,1,8,207,1894,6,CA,7904262,122685,1672,93291-9283
201 New Stine Rd.,Bakersfield,3,2,3,2,San Joaquin Valley College-Bakersfield,35.35275,11,-119.062251,-2,1,8,62,751,6,CA,3036461,122694,662,93309
333 Sunset Blvd.,Rocklin,2,2,7,1,William Jessup University,38.819728,41,-121.292312,-2,1,8,135,991,2,CA,11816924,122728,470,95765-3707
2100 Moorpark Ave,San Jose,1,2,3,2,San Jose City College,37.316293,11,-121.929747,-2,1,8,460,9927,4,CA,12493805,122746,1956,95128-2798
1 Washington Sq,San Jose,1,2,7,1,San Jose State University,37.335201,11,-121.881214,-2,1,8,3300,25157,1,CA,95730480,122755,9949,95192-0001
1700 W Hillsdale Blvd,San Mateo,1,2,3,2,College of San Mateo,37.534357,21,-122.336078,-2,1,8,750,9548,4,CA,9228105,122791,1496,94402-3784
5300 California Avenue,Bakersfield,3,2,5,1,Santa Barbara Business College-Bakersfield,35.359544,11,-119.061264,-2,1,8,89,600,3,CA,1644812,122834,425,93309
3250 Wilshire Blvd Ste 400,Los Angeles,3,2,7,1,Westwood College-Los Angeles,34.061397,11,-118.293292,-2,1,8,132,2687,3,CA,9374297,122843,2021,90010
303 E Plaza Dr Ste 1,Santa Maria,3,2,5,1,Santa Barbara Business College-Santa Maria,34.403862,13,-119.699744,-2,1,8,33,219,3,CA,540536,122852,148,93454
721 Cliff Drive,Santa Barbara,1,2,4,2,Santa Barbara City College,34.406788,13,-119.698045,-2,1,8,2186,19257,4,CA,24925306,122889,4219,93109-2394
500 El Camino Real,Santa Clara,2,2,9,1,Santa Clara University,37.352706,12,-121.938189,-2,1,8,1276,5250,2,CA,76749636,122931,729,95053
1900 Pico Blvd,Santa Monica,1,2,3,2,Santa Monica College,34.018968,13,-118.470431,-2,1,8,2792,30254,4,CA,42117160,122977,7574,90405-1628
1501 Mendocino Avenue,Santa Rosa,1,2,4,2,Santa Rosa Junior College,38.45416,12,-122.720689,-2,1,8,1368,22826,4,CA,25520127,123013,4141,95401-4395
1030 North Columbia Avenue,Claremont,2,2,6,1,Scripps College,34.103655,21,-117.711336,-2,1,8,235,945,2,CA,16136970,123165,125,91711-3905
200 Whitney Place,Fremont,3,2,3,2,Wyotech-Fremont,37.469279,21,-121.919395,-2,1,8,791,2075,6,CA,5373843,123208,1360,94539
915 S Mooney Blvd,Visalia,1,2,3,2,College of the Sequoias,36.322957,12,-119.314775,-2,1,8,1212,10947,4,CA,24618462,123217,4851,93277-2214
2951 Goodwater Ave.,Redding,2,2,7,1,Shasta Bible College and Graduate School,40.564208,13,-122.315742,-2,1,8,6,53,2,CA,327196,123280,42,96002
11555 Old Oregon Trail,Redding,1,2,3,2,Shasta College,40.625731,22,-122.317982,-2,1,8,811,8471,4,CA,19077263,123299,3460,96003
5000 Rocklin Road,Rocklin,1,2,3,2,Sierra College,38.792758,21,-121.212646,-2,1,8,1571,18247,4,CA,30339135,123341,5740,95677-3397
1340 W 18th St,Merced,3,2,2,3,Sierra College of Beauty,37.306585,13,-120.495668,-2,1,8,75,265,9,CA,444365,123350,108,95340
4747 N First St Bldg D,Fresno,3,2,4,2,Sierra Valley College of Court Reporting,36.802756,11,-119.773017,-2,1,8,22,153,6,CA,559317,123396,104,93726
2211 College View Drive,Redding,2,2,7,1,Simpson University,40.61331,13,-122.333048,-2,1,8,147,1031,2,CA,12161198,123457,581,96003-8606
800 College Ave,Weed,1,2,3,2,College of the Siskiyous,41.413848,33,-122.389166,-2,1,8,215,2432,4,CA,5149429,123484,939,96094-2899
5451 Lemon Hill Ave,Sacramento,1,2,4,2,Charles A Jones Career and Education Center,38.51651,11,-121.44111,-2,1,8,1176,1376,4,CA,3876522,123493,1225,95824-1529
3300 College Dr,San Bruno,1,2,3,2,Skyline College,37.630543,21,-122.465978,-2,1,8,468,9563,4,CA,12404276,123509,2163,94066-1698
701 South Mount Vernon Avenue,San Bernardino,1,2,4,2,San Bernardino Valley College,34.088717,12,-117.313814,-2,1,8,825,12031,4,CA,20651093,123527,3677,92410-2798
1928 Saint Marys Road,Moraga,2,2,9,1,Saint Mary's College of California,37.83997,41,-122.106795,-2,1,8,623,2853,2,CA,42835007,123554,932,94575
4000 Suisun Valley Rd,Fairfield,1,2,4,2,Solano Community College,38.235513,22,-122.120232,-2,1,8,625,9772,4,CA,13194193,123563,2462,94534-3197
1801 E Cotati Ave,Rohnert Park,1,2,7,1,Sonoma State University,38.341023,21,-122.673261,-2,1,8,1729,8164,1,CA,27156999,123572,2423,94928-3609
"1000 South Fremont Avenue, Bldg A-11, Ste 11010",Alhambra,3,2,3,2,Pinnacle College,34.081485,21,-118.150493,-2,1,8,217,411,6,CA,1615597,123581,315,91803
1126 N Brookhurst St,Anaheim,2,2,9,1,South Baylo University,33.847936,11,-117.958663,-2,1,8,0,130,2,CA,84658,123633,44,92801-1701
2011 W. Chapman Avenue,Orange,3,2,4,2,South Coast College,33.787946,12,-117.874109,-2,1,8,42,568,6,CA,1556196,123642,355,92868-2609
55 Fair Dr,Costa Mesa,2,2,7,1,Vanguard University of Southern California,33.662686,12,-117.900911,-2,1,8,435,1957,2,CA,25360883,123651,743,92626
"12951 Euclid Street, Suite 101",Garden Grove,3,2,3,2,Concorde Career College-Garden Grove,33.774741,21,-117.938395,-2,1,8,722,1625,6,CA,3886118,123679,1035,92840-9201
900 Otay Lakes Rd,Chula Vista,1,2,4,2,Southwestern College,32.641567,21,-116.997215,-2,1,8,1196,18362,4,CA,32650930,123800,5020,91910-7299
960 E. 3rd Street,Los Angeles,2,2,7,1,Southern California Institute of Architecture,34.04365,11,-118.232703,-2,1,8,31,265,2,CA,1706934,123952,130,90013-1822
University Park,Los Angeles,2,2,9,1,University of Southern California,34.021058,11,-118.283858,-2,1,8,3016,18316,2,CA,341033816,123961,4227,90089
29 Cougar Court,Taft,1,2,4,2,Taft College,35.149343,32,-119.459751,-2,1,8,359,5418,4,CA,5579613,124113,953,93268
"10,000 Ojai Rd",Santa Paula,2,2,5,1,Thomas Aquinas College,34.429009,42,-119.087141,-2,1,8,84,370,2,CA,3794125,124292,132,93060
23635 El Toro Road Suite K,Lake Forest,3,2,2,3,Marinello Schools of Beauty-Lake Forest,33.61932,21,-117.704674,-2,1,8,343,1018,9,CA,3183671,124344,804,92630
4330 Auburn Boulevard,Sacramento,2,2,5,1,Epic Bible College,38.64491,21,-121.362311,-2,1,8,7,255,2,CA,1088947,124487,206,95841
6055 Pacific Blvd.,Huntington Park,3,2,3,2,United Education Institute-Huntington Park Campus,33.986057,21,-118.226206,-2,1,8,3686,7229,6,CA,38132975,124681,6866,90255
"201 East Airport Drive, Suite A",San Bernardino,3,2,4,2,Concorde Career College-San Bernardino,34.06722,12,-117.28398,-2,1,8,718,1627,6,CA,3406565,124706,742,92408-3403
8619 S. Vermont Ave,Los Angeles,3,2,2,3,Universal College of Beauty Inc-Los Angeles 1,33.959435,21,-118.292148,-2,1,8,11,53,9,CA,210086,124779,43,90044
12412 Victory Boulevard,North Hollywood,3,2,3,2,Concorde Career College-North Hollywood,34.186464,11,-118.403755,-2,1,8,600,1402,6,CA,2477062,124937,585,91606-3134
4667 Telegraph Rd,Ventura,1,2,4,2,Ventura College,34.277035,12,-119.230659,-2,1,8,1149,13030,4,CA,21202164,125028,3729,93003-3872
16515 Mojave Dr,Victorville,3,2,2,3,Victor Valley Beauty College Inc,34.528578,12,-117.303918,-2,1,8,46,174,9,CA,540161,125082,141,92395
18422 Bear Valley Rd,Victorville,1,2,4,2,Victor Valley College,34.472231,12,-117.261456,-2,1,8,951,11947,4,CA,27679910,125091,4854,92395-5850
2050 Center Sreet,Berkeley,1,2,4,2,Berkeley City College,37.87047,12,-122.269793,-2,1,8,176,5739,4,CA,6307836,125170,1098,94704
"100 Washington Avenue South, Suite 900",Minneapolis,3,2,9,1,Walden University,44.98137,11,-93.265731,-2,1,4,0,8669,3,MN,12584622,125231,4161,55401
1271 North Main Street,Salinas,3,2,2,3,Waynes College of Beauty,36.70055,12,-121.652311,-2,1,8,10,52,9,CA,205805,125310,28,93906-2830
300 Cherry Lane,Coalinga,1,2,3,2,West Hills College-Coalinga,36.147891,32,-120.356747,-2,1,8,254,2572,4,CA,5320215,125462,903,93210
9000 Overland Avenue,Culver City,1,2,3,2,West Los Angeles College,34.005578,21,-118.387578,-2,1,8,479,10678,4,CA,15410135,125471,3131,90230-3519
14000 Fruitvale Ave,Saratoga,1,2,4,2,West Valley College,37.263133,21,-122.009701,-2,1,8,709,10300,4,CA,8817714,125499,1590,95070-5698
8909 Folsom Blvd,Sacramento,3,2,4,2,Carrington College California-Sacramento,38.561777,21,-121.36892,-2,1,8,372,2120,6,CA,6136453,125532,1511,95826
955 La Paz Rd,Santa Barbara,2,2,6,1,Westmont College,34.449265,22,-119.661932,-2,1,8,325,1343,2,CA,24314760,125727,281,93108-1089
13406 E Philadelphia Street,Whittier,2,2,9,1,Whittier College,33.977625,21,-118.028402,-2,1,8,418,1670,2,CA,35515512,125763,593,90601
7500 Glenoaks Blvd,Burbank,2,2,7,1,Woodbury University,34.209226,11,-118.340692,-2,1,8,177,1488,2,CA,16299630,125897,722,91510-7846
7215 Waring Ave,Los Angeles,2,2,5,1,Yeshiva Ohr Elchonon Chabad West Coast Talmudical Seminary,34.085494,11,-118.346688,-2,1,8,48,146,2,CA,2103815,126076,86,90046
2088 N Beale Rd,Marysville,1,2,3,2,Yuba College,39.125995,22,-121.539316,-2,1,8,689,7224,4,CA,16385182,126119,3000,95901
432 North Avenue,Grand Junction,3,2,4,2,The Salon Professional Academy-Grand Junction,39.07799,13,-108.564961,-2,1,7,47,131,6,CO,267912,126164,51,81501
208 Edgemont Blvd,Alamosa,1,2,7,1,Adams State University,37.477238,33,-105.880943,-2,1,7,521,2418,1,CO,20237106,126182,1216,81101
5401 W. 20th St.,Greeley,1,2,3,2,Aims Community College,40.409037,13,-104.764335,-2,1,7,273,4983,4,CO,19005929,126207,2119,80632
5900 S. Santa Fe Dr.,Littleton,1,2,3,2,Arapahoe Community College,39.607505,21,-105.018631,-2,1,7,456,11806,4,CO,49624462,126289,4854,80160-9002
1681 S Dayton St,Denver,3,2,3,2,Bel-Rea Institute of Animal Technology,39.686066,11,-104.875292,-2,1,7,148,682,6,CO,1200448,126359,347,80247
1815 Jet Wing Drive,Colorado Springs,3,2,3,2,Everest College-Colorado Springs,38.807095,11,-104.740267,-2,1,7,34,435,6,CO,1839520,126401,324,80916
"1380 Lawrence Street, Lawrence Street Center, Suite 1400",Denver,1,2,9,1,University of Colorado Denver,39.74603,11,-104.999181,-2,1,7,963,13103,1,CO,31565297,126562,3639,80217-3364
1420 Austin Bluffs Parkway,Colorado Springs,1,2,9,1,University of Colorado Colorado Springs,38.892735,11,-104.800296,-2,1,7,1333,8477,1,CO,20061416,126580,2731,80918
10851 W 120th Ave,Broomfield,3,2,3,2,Redstone College,39.914822,13,-105.119096,-2,1,7,105,651,6,CO,2113343,126605,444,80021-3465
Regent Drive at Broadway,Boulder,1,2,9,1,University of Colorado Boulder,40.004415,13,-105.267061,-2,1,7,5437,25940,1,CO,96626626,126614,4467,80309-0017
8787 West Alameda Avenue,Lakewood,2,2,7,1,Colorado Christian University,39.711701,12,-105.094836,-2,1,7,316,3201,2,CO,18886634,126669,1325,80226
14. E Cache La Poudre St.,Colorado Springs,2,2,7,1,Colorado College,38.84657,11,-104.82422,-2,1,7,510,2004,2,CO,28672375,126678,197,80903
111 N. Havana Street,Aurora,3,2,3,2,Concorde Career College-Aurora,39.718699,11,-104.867089,-2,1,7,732,1442,6,CO,3321632,126687,589,80010-4314
1200 Lincoln Street,Denver,3,2,5,1,The Art Institute of Colorado,39.735587,11,-104.985847,-2,1,7,168,1972,3,CO,5766200,126702,1030,80203-2983
802 Grand Ave.,Glenwood Springs,1,2,5,1,Colorado Mountain College,39.54636,33,-107.324391,-2,1,7,420,5847,1,CO,6703979,126711,1367,81601-0233
500 Kennedy Drive,Rangely,1,2,3,2,Colorado Northwestern Community College,40.080745,43,-108.790296,-2,1,7,175,1158,4,CO,2164531,126748,275,81648-3598
1500 Illinois St,Golden,1,2,9,1,Colorado School of Mines,39.75079,21,-105.227148,-2,1,7,949,4156,1,CO,23504026,126775,729,80401
1575 Hoyt St,Lakewood,3,2,3,2,Colorado School of Trades,39.741009,12,-105.103945,-2,1,7,117,297,6,CO,574878,126784,136,80215-2996
102 Administration Building,Fort Collins,1,2,9,1,Colorado State University-Fort Collins,40.574759,12,-105.08083,-2,1,7,4401,23252,1,CO,84328438,126818,5977,80523-0100
4435 N Chestnut Street,Colorado Springs,3,2,9,1,Colorado Technical University-Colorado Springs,38.894265,11,-104.833928,-2,1,7,79,1506,3,CO,3897193,126827,668,80907-3812
441 Wadsworth Blvd,Lakewood,3,2,4,2,Empire Beauty School-Lakewood,39.722781,12,-105.082104,-2,1,7,33,102,6,CO,364680,126854,82,80226
16000 E CentreTech Pky,Aurora,1,2,3,2,Community College of Aurora,39.717767,11,-104.801861,-2,1,7,327,8052,4,CO,32516833,126863,3161,80011-9036
"1385 S Colorado Blvd., 5th Floor",Denver,2,2,5,1,College America-Denver,39.691571,11,-104.94118,-2,1,7,74,581,2,CO,3868416,126872,465,80222
1765 US Hwy 50,Delta,1,2,2,3,Delta Montrose Technical College,38.702524,41,-108.031072,-2,1,7,80,1019,7,CO,468591,126915,110,81416
"9051 Harlan Street, Unit 20",Westminster,3,2,3,2,Prince Institute-Rocky Mountains,39.859891,21,-105.065051,-2,1,7,5,90,6,CO,206578,126924,43,80031-2901
1111 W. Colfax Ave.,Denver,1,2,3,2,Community College of Denver,39.74142,11,-105.003007,-2,1,7,580,11901,4,CO,36472581,126942,5629,80204-2026
11194 E 45th Ave,Denver,3,2,4,2,Lincoln College of Technology-Denver,39.77651,11,-104.856171,-2,1,7,982,2019,6,CO,5973873,126951,1323,80239
7350 N Broadway,Denver,3,2,5,1,Westwood College-Denver North,39.830429,21,-104.986386,-2,1,7,30,455,3,CO,1611250,127024,347,80221
2199 S. University Blvd,Denver,2,2,9,1,University of Denver,39.695954,11,-104.964625,-2,1,7,1203,5394,2,CO,92807759,127060,1001,80208
1250 Welton Street,Denver,1,2,2,3,Emily Griffith Technical College,39.741034,11,-104.995303,-2,1,7,758,3794,7,CO,2018225,127158,529,80204-2197
1000 Rim Drive,Durango,1,2,7,1,Fort Lewis College,37.275428,33,-107.867003,-2,1,7,841,3883,1,CO,32106757,127185,1233,81301-3999
3645 W 112th Ave,Westminster,1,2,3,2,Front Range Community College,39.901757,21,-105.039359,-2,1,7,1290,20529,4,CO,45576572,127200,7558,80031
51241 Hwy 6 and 24 Ste 1,Glenwood Springs,3,2,4,2,Glenwood Beauty Academy,39.561947,33,-107.359099,-2,1,7,52,67,6,CO,356193,127219,29,81601
6464 S College,Fort Collins,3,2,4,2,Hair Dynamics Education Center,40.497241,12,-105.076492,-2,1,7,53,256,6,CO,469498,127228,135,80525
5707 N Academy Blvd,Colorado Springs,3,2,4,2,International Salon and Spa Academy,38.913621,11,-104.786252,-2,1,7,101,420,6,CO,809203,127316,210,80918-3684
2401 S Main St,Lamar,1,2,3,2,Lamar Community College,38.058067,33,-102.615612,-2,1,7,144,916,4,CO,2567905,127389,300,81052-3999
1100 North Avenue,Grand Junction,1,2,9,1,Colorado Mesa University,39.076354,13,-108.540281,-2,1,7,1939,9392,1,CO,19163065,127556,3780,81501-3122
Speer Blvd and Colfax Ave,Denver,1,2,7,1,Metropolitan State University of Denver,39.742248,11,-105.002391,-2,1,7,1718,23019,1,CO,49318688,127565,8865,80217-3362
920 Barlow Road,Fort  Morgan,1,2,3,2,Morgan Community College,40.258792,33,-103.771822,-2,1,7,77,1839,4,CO,3516254,127617,552,80701
2130 Arapahoe Ave,Boulder,2,2,7,1,Naropa University,40.014816,13,-105.267073,-2,1,7,24,402,2,CO,4060628,127653,190,80302-6697
"1915 Jamboree Drive,  Suite 185",Colorado Springs,3,2,5,1,National American University-Colorado Springs,38.95208,11,-104.790571,-2,1,7,3,357,3,CO,758554,127680,215,80920
"1325 S. Colorado Boulevard, Suite 100",Denver,3,2,5,1,National American University-Denver,39.691953,11,-104.941649,-2,1,7,0,269,3,CO,556929,127699,193,80222-3308
1111 Academy Park Loop,Colorado Springs,2,2,5,1,Nazarene Bible College,38.814124,11,-104.751124,-2,1,7,2,835,2,CO,1222140,127714,372,80910-3704
100 College Avenue,Sterling,1,2,3,2,Northeastern Junior College,40.636879,33,-103.197536,-2,1,7,320,1970,4,CO,4338350,127732,616,80751-2944
Carter Hall - Rm 4000,Greeley,1,2,9,1,University of Northern Colorado,40.403178,13,-104.701721,-2,1,7,2189,10318,1,CO,42122130,127741,3626,80639
1802 Colorado Ave,La Junta,1,2,3,2,Otero Junior College,37.971184,33,-103.544779,-2,1,7,262,1456,4,CO,5170918,127778,708,81050
9065 Grant St,Thornton,3,2,3,2,Everest College-Thornton,39.86156,21,-104.985441,-2,1,7,51,407,6,CO,1412436,127787,302,80229
5675 S Academy Blvd,Colorado Springs,1,2,3,2,Pikes Peak Community College,38.764287,21,-104.787261,-2,1,7,1333,15175,4,CO,40997053,127820,6923,80906-5498
"6805 Corporate Drive, Suite 100",Colorado Springs,3,2,3,2,Intellitec Medical Institute,38.93097,11,-104.814201,-2,1,7,239,591,6,CO,4542029,127839,431,80919
900 West Orman Avenue,Pueblo,1,2,3,2,Pueblo Community College,38.263458,12,-104.636396,-2,1,7,365,7432,4,CO,53092807,127884,6176,81004-1499
13300 W Sixth Ave,Lakewood,1,2,3,2,Red Rocks Community College,39.720277,12,-105.150094,-2,1,7,555,9031,4,CO,18185637,127909,3087,80228-1255
3333 Regis Blvd,Denver,2,2,9,1,Regis University,39.78976,11,-105.031385,-2,1,7,474,5688,2,CO,36736740,127918,1480,80221-1099
1600 Pierce St,Lakewood,3,2,7,1,Rocky Mountain College of Art and Design,39.74332,12,-105.069911,-2,1,7,95,625,3,CO,5153304,127945,227,80214
4745 Walnut Street,Boulder,2,2,6,1,Montessori Education Center of the Rockies,39.96504,13,-105.25311,-2,1,7,2,16,2,CO,18575,127954,4,80301
2200 Bonforte Blvd,Pueblo,1,2,7,1,Colorado State University-Pueblo,38.309219,12,-104.579846,-2,1,7,867,5373,1,CO,20200644,128106,2220,81001-4901
500 Airport Blvd,Aurora,1,2,2,3,Pickens Technical College,39.723527,11,-104.78998,-2,1,7,121,1378,7,CO,897029,128151,264,80011-9307
2315 East Pikes Peak Avenue,Colorado Springs,3,2,3,2,Intellitec College-Colorado Springs,38.832183,11,-104.78721,-2,1,7,513,686,6,CO,2906663,128179,662,80909-6096
772 Horizon Dr,Grand Junction,3,2,3,2,Intellitec College-Grand Junction,39.116346,13,-108.53062,-2,1,7,896,1042,6,CO,2817819,128188,662,81506
600 Prospect St,Trinidad,1,2,4,2,Trinidad State Junior College,37.172939,33,-104.512184,-2,1,7,240,1691,4,CO,6254405,128258,835,81082
3811 E 120th Ave,Thornton,3,2,4,2,Empire Beauty School-Thornton,39.914863,21,-104.943533,-2,1,7,64,232,6,CO,741655,128337,167,80233
600 N Adams,Gunnison,1,2,7,1,Western State Colorado University,38.547421,33,-106.91971,-2,1,7,449,2106,1,CO,8188308,128391,662,81231
1555 Stuart St,Denver,2,2,9,1,Yeshiva Toras Chaim Talmudical Seminary,39.741781,11,-105.043282,-2,1,7,6,20,2,CO,166602,128425,0,80204
700 Prospect St,New Haven,2,2,7,1,Albertus Magnus College,41.332519,12,-72.923848,-2,1,1,124,1356,2,CT,11576594,128498,788,06511-1189
2 National Place,Danbury,3,2,2,3,Paul Mitchell the School-Danbury,41.39648,13,-73.451841,-2,1,1,25,165,9,CT,202027,128540,51,6810
170 Elm St,Enfield,1,2,3,2,Asnuntuck Community College,41.998409,21,-72.570177,-2,1,1,217,1673,4,CT,3853716,128577,634,6082
132 Prospect St,Stamford,2,2,2,3,Bais Binyomin Academy,41.059922,12,-73.534604,-2,1,1,15,48,8,CT,198789,128586,0,6901
1 Summit Place,Branford,3,2,1,3,Branford Hall Career Institute-Branford Campus,41.278557,21,-72.848201,-2,1,1,639,943,9,CT,2374184,128674,633,06405-4103
2279 Mount Vernon Road,Southington,3,2,5,1,Lincoln College of New England-Southington,41.632345,21,-72.920217,-2,1,1,205,1071,3,CT,2860572,128683,617,06489-1057
200 Mill Hill Ave,Bridgeport,2,2,2,3,Bridgeport Hospital School of Nursing,41.189413,12,-73.165185,-2,1,1,104,161,8,CT,1100000,128726,58,6610
126 Park Avenue,Bridgeport,2,2,9,1,University of Bridgeport,41.165587,12,-73.189352,-2,1,1,588,2688,2,CT,36327928,128744,1306,06604-5620
1615 Stanley St,New Britain,1,2,9,1,Central Connecticut State University,41.690258,21,-72.770094,-2,1,1,1340,9942,1,CT,27888016,128771,3316,6050
55 Paul Manafort Drive,New Britain,1,2,5,1,Charter Oak State College,41.688246,21,-72.767972,-2,1,1,0,1644,1,CT,1640414,128780,427,6053
75 Kitts Lane,Newington,3,2,1,3,Connecticut Center for Massage Therapy-Newington,41.685072,21,-72.710705,-2,1,1,33,457,9,CT,384796,128896,174,06111-3975
270 Mohegan Avenue,New London,2,2,7,1,Connecticut College,41.379833,13,-72.107321,-2,1,1,503,1926,2,CT,28518081,128902,250,06320-4196
1000 Main St,East Hartford,3,2,2,3,Marinello Schools of Beauty-East Hartford,41.771184,13,-72.642363,-2,1,1,2,239,9,CT,404085,128957,117,6108
221 W Main St,Branford,3,2,2,3,Porter and Chester Institute of Branford,41.277311,21,-72.854898,-2,1,1,40,313,9,CT,1053409,129002,210,6405
352 Mansfield Road,Storrs,1,2,9,1,University of Connecticut,41.808205,21,-72.249519,-2,1,1,3107,17528,1,CT,105123675,129020,3659,6269
One Riverside Drive,East Hartford,2,2,5,1,Goodwin College,41.74405,13,-72.6403,-2,1,1,168,3317,2,CT,17718546,129154,1802,6118
97 Newberry Road,East Windsor,3,2,4,2,Lincoln Technical Institute-East Windsor,41.924248,41,-72.596915,-2,1,1,617,1327,6,CT,2507763,129181,716,6088
83 Windham St,Willimantic,1,2,7,1,Eastern Connecticut State University,41.721673,31,-72.218753,-2,1,1,979,5258,1,CT,12433935,129215,1390,6226
1073 N Benson Rd,Fairfield,2,2,9,1,Fairfield University,41.160732,21,-73.25778,-2,1,1,990,3879,2,CT,57736578,129242,594,06824-5195
97 Washington Ave,North Haven,3,2,2,3,Northhaven Academy,41.394495,21,-72.85745,-2,1,1,67,239,9,CT,237624,129349,58,6473
950 Main Street,Hartford,1,2,3,2,Capital Community College,41.768397,12,-72.672734,-2,1,1,300,4425,4,CT,12501573,129367,2387,6103
99 South Street,West Hartford,3,2,4,2,Fox Institute of Business-West Hartford,41.727016,13,-72.725762,-2,1,1,210,506,6,CT,1720941,129482,379,06110-1922
200 Bloomfield Ave,West Hartford,2,2,9,1,University of Hartford,41.796485,12,-72.714965,-2,1,1,1278,5284,2,CT,76012783,129525,1395,06117-1599
33 Prospect Hill Road,Cromwell,2,2,8,1,Holy Apostles College and Seminary,41.60682,21,-72.647853,-2,1,1,7,54,2,CT,55976,129534,13,06416-2005
900 Lafayette Blvd,Bridgeport,1,2,3,2,Housatonic Community College,41.175228,12,-73.191003,-2,1,1,714,6077,4,CT,14354782,129543,2832,06604-4704
"270 Farmington Ave, Suite 245",Farmington,3,2,3,2,Sanford-Brown College-Farmington,41.73539,21,-72.795559,-2,1,1,25,272,6,CT,1136581,129613,209,6032
84 Lyme St,Old Lyme,2,2,6,1,Lyme Academy College of Fine Arts,41.322826,22,-72.329397,-2,1,1,13,79,2,CT,1446188,129686,32,6371
Great Path,Manchester,1,2,3,2,Manchester Community College,41.760484,21,-72.562577,-2,1,1,920,7692,4,CT,15120208,129695,2879,6040
750 Chase Parkway,Waterbury,1,2,3,2,Naugatuck Valley Community College,41.549564,22,-73.071209,-2,1,1,904,7419,4,CT,16458487,129729,2928,06708-3089
100 Training Hill Rd,Middletown,1,2,3,2,Middlesex Community College,41.539516,13,-72.611838,-2,1,1,355,2933,4,CT,10589259,129756,1844,06457-4829
437 Pequot Avenue,New London,2,2,5,1,Mitchell College,41.328075,13,-72.095337,-2,1,1,145,858,2,CT,10419512,129774,290,6320
574 New London Turnpike,Norwich,1,2,3,2,Three Rivers Community College,41.509945,13,-72.103039,-2,1,1,554,4980,4,CT,12837563,129808,2139,6360
200 John Downey Dr,New Britain,3,2,2,3,Lincoln Technical Institute-New Britain,41.659236,21,-72.754498,-2,1,1,314,853,9,CT,2361366,129923,559,6051
32 Field Rd,Somers,3,2,1,3,New England Tractor Trailer Training School of Connecticut,41.978355,21,-72.451739,-2,1,1,873,964,9,CT,4626900,129932,857,6071
300 Boston Post Road,West Haven,2,2,9,1,University of New Haven,41.291314,21,-72.961472,-2,1,1,1119,4693,2,CT,64641272,129941,1212,6516
470 Bank Street,New London,3,2,2,3,Ridley-Lowell Business & Technical Institute-New London,41.349947,13,-72.100514,-2,1,1,199,494,9,CT,3091000,129969,148,6320
188 Richards Avenue,Norwalk,1,2,3,2,Norwalk Community College,41.102574,13,-73.450965,-2,1,1,693,6810,4,CT,13139351,130004,2284,6854
Park Pl E,Winsted,1,2,3,2,Northwestern Connecticut Community College,41.920982,31,-73.059291,-2,1,1,159,1423,4,CT,3056416,130040,519,6098
20 Gorham Ave,Hamden,3,2,5,1,Paier College of Art Inc,41.347714,21,-72.935048,-2,1,1,15,192,3,CT,281161,130110,57,06514-3902
1231 E Main St,Meriden,3,2,2,3,Marinello Schools of Beauty-Meriden,41.524385,21,-72.763231,-2,1,1,127,826,9,CT,1469689,130129,409,06450-4836
670 Lordship Blvd,Stratford,3,2,2,3,Porter and Chester Institute of Stratford,41.169646,13,-73.149023,-2,1,1,494,2584,9,CT,8224034,130174,1631,06615-7158
800 Country Club Rd,Waterbury,3,2,7,1,Post University,41.535334,22,-73.080525,-2,1,1,522,6546,3,CT,23351254,130183,2823,6723
742 Upper Maple St,Danielson,1,2,3,2,Quinebaug Valley Community College,41.82623,21,-71.889673,-2,1,1,250,2094,4,CT,4949858,130217,1017,06239-1436
Mt Carmel Ave,Hamden,2,2,9,1,Quinnipiac University,41.419527,21,-72.895542,-2,1,1,1780,6430,2,CT,89213565,130226,919,6518
5151 Park Ave,Fairfield,2,2,9,1,Sacred Heart University,41.221548,21,-73.24461,-2,1,1,865,4092,2,CT,44010830,130253,614,06825-1000
1678 Asylum Avenue,West Hartford,2,2,9,1,University of Saint Joseph,41.783028,13,-72.730489,-2,1,1,157,1066,2,CT,13438369,130314,393,6117
20 Church Street,New Haven,1,2,3,2,Gateway Community College,41.30449,12,-72.927501,-2,1,1,874,7976,4,CT,18077269,130396,3634,6510
2800 Main St,Bridgeport,2,2,5,1,St Vincent's College,41.201198,12,-73.201106,-2,1,1,12,824,2,CT,2851708,130448,212,06606-4201
501 Crescent Street,New Haven,1,2,9,1,Southern Connecticut State University,41.331852,12,-72.948806,-2,1,1,1360,8525,1,CT,26245033,130493,2951,06515-1355
560 Saw Mill Road,West Haven,3,2,2,3,Stone Academy-Hamden,41.26774,21,-72.977151,-2,1,1,178,607,9,CT,4322544,130509,475,6516
300 Summit St,Hartford,2,2,7,1,Trinity College,41.746746,12,-72.688684,-2,1,1,591,2285,2,CT,34578875,130590,265,06106-3100
271 Scott Swamp Road,Farmington,1,2,3,2,Tunxis Community College,41.705498,21,-72.87754,-2,1,1,584,4734,4,CT,8427015,130606,1637,06032-3187
237 High St,Middletown,2,2,9,1,Wesleyan University,41.55678,13,-72.656755,-2,1,1,752,2924,2,CT,52370820,130697,537,6459
181 White Street,Danbury,1,2,9,1,Western Connecticut State University,41.400365,13,-73.444264,-2,1,1,821,5583,1,CT,40992576,130776,1583,06810-6826
Woodbridge Hall,New Haven,2,2,9,1,Yale University,41.311158,12,-72.926688,-2,1,1,1355,5405,2,CT,127322985,130794,688,6520
424 Savannah Rd,Lewes,2,2,4,2,Beebe Medical Center Margaret H Rollins School of Nursing,38.771265,32,-75.142425,-2,1,2,0,52,5,DE,289288,130837,26,19958
"3700 Lancaster Pike, Suite 105",Wilmington,3,2,1,3,Dawn Career Institute Inc,39.754694,21,-75.594268,-2,1,2,1172,1370,9,DE,2803374,130873,728,19805-1511
"Route 18, Seashore Highway PO Box 610",Georgetown,1,2,3,2,Delaware Technical Community College-Owens,38.697344,31,-75.40752,-2,1,2,733,4611,4,DE,8902126,130891,2217,19947
100 Campus Drive,Dover,1,2,3,2,Delaware Technical Community College-Terry,39.198371,13,-75.56012,-2,1,2,504,3106,4,DE,5751567,130907,1378,19901
333 N. Shipley Street,Wilmington,1,2,3,2,Delaware Technical Community College-Stanton/Wilmington,39.740259,13,-75.552162,-2,1,2,876,7216,4,DE,9413514,130916,2345,19801
1200 N. Dupont Highway,Dover,1,1,9,1,Delaware State University,39.187173,13,-75.54053,-2,1,2,1018,3955,1,DE,22054816,130934,1991,19901
104 Hullihen Hall,Newark,1,2,9,1,University of Delaware,39.679791,21,-75.7536,-2,1,2,4218,17484,1,DE,122055104,130943,2084,19716
4701 Limestone Rd,Wilmington,2,2,7,1,Goldey-Beacom College,39.742464,21,-75.694018,-2,1,2,91,632,2,DE,6373844,130989,199,19808
211 Louviers Drive,Newark,3,2,2,3,Schilling-Douglas School of Hair Design,39.711223,21,-75.74195,-2,1,2,40,225,9,DE,393847,131061,122,19711
120 N State St,Dover,2,2,8,1,Wesley College,39.16325,13,-75.527377,-2,1,2,619,1679,2,DE,16521108,131098,832,19901-3875
320 Dupont Hwy,New Castle,2,2,9,1,Wilmington University,39.682299,21,-75.586998,-2,1,2,317,8133,2,DE,7914871,131113,2661,19720
4400 Massachusetts Ave NW,Washington,2,2,9,1,American University,38.937802,11,-77.090106,-2,1,2,1594,7299,2,DC,98348960,131159,1142,20016-8001
"620 Michigan Avenue, NE",Washington,2,2,9,1,Catholic University of America,38.935796,11,-76.998961,-2,1,2,880,3694,2,DC,51625908,131283,455,20064
"500 Seventeenth Street, NW",Washington,2,2,7,1,Corcoran College of Art and Design,38.895757,11,-77.039812,-2,1,2,47,386,2,DC,4405865,131308,110,20006-4804
4200 Connecticut Ave NW,Washington,1,1,7,1,University of the District of Columbia,38.943819,11,-77.066247,-2,1,2,204,4857,1,DC,12970333,131399,2388,20008
"800 Florida Ave, NE",Washington,2,2,9,1,Gallaudet University,38.907371,11,-76.993675,-2,1,2,212,1117,2,DC,15997864,131450,532,20002-3695
"2121 I Street, NW",Washington,2,2,9,1,George Washington University,38.89865,11,-77.047871,-2,1,2,2376,10240,2,DC,174661308,131469,1389,20052
37th and O St NW,Washington,2,2,9,1,Georgetown University,38.908809,11,-77.073463,-2,1,2,1568,7552,2,DC,104249993,131496,1001,20057-0001
2400 Sixth St NW,Washington,2,1,9,1,Howard University,38.920739,11,-77.019478,-2,1,2,1330,6656,2,DC,75042791,131520,2991,20059-0001
6565 Arlington Boulevard,Falls Church,3,2,3,2,Medtech Institute,38.86972,21,-77.171071,-2,1,5,1591,3060,6,VA,8973861,131742,2098,22042
1133 15th St NW,Washington,3,2,7,1,Strayer University-District of Columbia,38.904851,11,-77.034349,-2,1,2,0,995,3,DC,4029159,131803,536,20005
1556 Wisconsin Ave NW,Washington,2,2,4,2,National Conservatory of Dramatic Arts,38.910024,11,-77.065095,-2,1,2,6,36,5,DC,101355,131830,11,20007
125 Michigan Ave NE,Washington,2,2,7,1,Trinity Washington University,38.927398,11,-77.004261,-2,1,2,252,1885,2,DC,31138594,131876,1222,20017-1094
470 Destination Daytona Ln,Ormond Beach,3,2,3,2,Wyotech-Daytona,29.349365,41,-81.133086,-2,1,5,527,1352,6,FL,3592295,132268,823,32174
1799 SE 17th St,Fort Lauderdale,3,2,5,1,The Art Institute of Fort Lauderdale,26.101246,12,-80.123514,-2,1,5,205,2239,3,FL,9428189,132338,1353,33316-3000
4700 Coconut Creek Parkway,Coconut Creek,1,2,4,2,Atlantic Technical Center,26.243609,21,-80.185311,-2,1,5,929,2882,4,FL,1817292,132374,366,33063-3902
5400 College Dr,Graceville,2,2,7,1,The Baptist College of Florida,30.956401,32,-85.519033,-2,1,5,42,534,2,FL,4183597,132408,336,32440
11300 NE 2nd Ave,Miami,2,2,9,1,Barry University,25.878865,21,-80.196136,-2,1,5,622,4619,2,FL,55311134,132471,2393,33161-6695
640 Dr Mary McLeod Bethune Blvd,Daytona Beach,2,1,7,1,Bethune-Cookman University,29.210193,13,-81.031429,-2,1,5,886,3486,2,FL,33197038,132602,2706,32114-3099
3601 N. Military Trail,Boca Raton,2,2,9,1,Lynn University,26.382777,13,-80.123851,-2,1,5,413,1657,2,FL,16416785,132657,332,33431-5598
"4212 Cortez Rd, West",Bradenton,3,2,2,3,GUTI The Premier Beauty & Wellness Academy,27.46281,13,-82.602211,-2,1,5,65,230,9,FL,443393,132666,110,34210
609 N Orange St,Starke,1,2,4,2,Bradford-Union Technical Center,29.952134,32,-82.123082,-2,1,5,199,270,4,FL,361024,132675,93,32091
1519 Clearlake Rd,Cocoa,1,2,5,1,Eastern Florida State College,28.384791,21,-80.75813,-2,1,5,1706,17202,1,FL,27908063,132693,6300,32922
111 East Las Olas Blvd,Fort Lauderdale,1,2,5,1,Broward College,26.07972,21,-80.23541,-2,1,5,3632,42662,1,FL,91433650,132709,21386,33301
1573 W. Fairbanks Ave Suite #100,Winter Park,3,2,3,2,Fortis College-Winter Park,28.555401,21,-81.448402,-2,1,5,28,265,6,FL,557529,132806,134,32789
2173 N.W.  99th Avenue,Miami,2,2,9,1,Carlos Albizu University-Miami,25.795162,21,-80.355002,-2,1,5,4,322,2,FL,1109819,132842,202,33172-2209
3001 SW College Rd,Ocala,1,2,5,1,College of Central Florida,29.166079,13,-82.175692,-2,1,5,793,8443,1,FL,39489828,132851,4585,34474
1011 Bill Beck Blvd,Kissimmee,2,2,5,1,Johnson University Florida,28.301869,21,-81.362512,-2,1,5,83,374,2,FL,1515649,132879,197,34744
4000 Central Florida Blvd,Orlando,1,2,9,1,University of Central Florida,28.60106,21,-81.198805,-2,1,5,5934,51010,1,FL,166808143,132903,19234,32816
18150 Murdock Circle,Port Charlotte,1,2,4,2,Charlotte Technical Center,27.005558,22,-82.147238,-2,1,5,163,276,4,FL,889796,132976,157,33948-3399
3094 Indian Circle,Marianna,1,2,5,1,Chipola College,30.790647,32,-85.231946,-2,1,5,359,2244,1,FL,6450977,133021,949,32446-2053
3400 Gulf to Bay Blvd,Clearwater,2,2,7,1,Clearwater Christian College,27.963556,12,-82.697305,-2,1,5,119,494,2,FL,4513873,133085,254,33759-4595
3702 Estey Ave,Naples,1,2,4,2,Lorenzo Walker Institute of Technology,26.141199,21,-81.763355,-2,1,5,284,881,4,FL,906165,133155,181,34104-4405
1200 W. International Speedway Blvd.,Daytona Beach,1,2,5,1,Daytona State College,29.202286,13,-81.051266,-2,1,5,1518,15184,1,FL,30284784,133386,7454,32114
9801 Belvedere Road,Royal Palm Beach,3,2,7,1,South University-West Palm Beach,26.69165,21,-80.19969,-2,1,5,48,892,3,FL,3090251,133465,624,33411
4200 54th Ave S,Saint Petersburg,2,2,5,1,Eckerd College,27.718996,12,-82.685992,-2,1,5,531,2337,2,FL,34521359,133492,547,33711-4700
8099 College Pky SW,Fort Myers,1,2,5,1,Edison State College,26.554737,21,-81.887375,-2,1,5,1519,15731,1,FL,31620130,133508,6284,33919-0000
1658 Kings Rd,Jacksonville,2,1,5,1,Edward Waters College,30.34513,11,-81.684817,-2,1,5,228,868,2,FL,9345662,133526,730,32209
600 S Clyde Morris Blvd,Daytona Beach,2,2,9,1,Embry-Riddle Aeronautical University-Daytona Beach,29.189244,13,-81.0495,-2,1,5,935,4534,2,FL,34954234,133553,1407,32114-3900
