Addr,City,Control,Hbcu,Hloffer,Iclevel,Instnm,Latitude,Locale,Longitud,Newid,Number of Records,Obereg,Sector,Stabbr,Tuition1,Tuition2,Tuition3,Tuition5,Tuition6,Tuition7,Unitid,ZIP
9500 Old Greensboro Rd,Tuscaloosa,1,1,3,2,Shelton State Community College,33.120531,13,-87.56148,-2,1,5,4,AL,3330,3330,6660,,,,102067,35405-8522
102 Elder Street,Boaz,1,2,3,2,Snead State Community College,34.200648,32,-86.169483,-2,1,5,4,AL,3330,3330,6660,,,,102076,35957-0734
307 N University Blvd,Mobile,1,2,9,1,University of South Alabama,30.695081,12,-88.18189,-2,1,5,1,AL,6648,6648,13296,6732,6732,13464,102094,36688-0002
4000 Dauphin St,Mobile,2,2,8,1,Spring Hill College,30.694751,12,-88.138199,-2,1,5,2,AL,29054,29054,29054,8820,8820,8820,102234,36608-1791
2545 Valleydale Road,Birmingham,2,2,5,1,Southeastern Bible College,33.378935,21,-86.749045,-2,1,5,2,AL,11700,11700,11700,,,,102261,35224-2083
3601 Stillman Boulevard,Tuscaloosa,2,1,5,1,Stillman College,33.199228,13,-87.585242,-2,1,5,2,AL,13548,13548,13548,,,,102270,35403
627 W Battle St,Talladega,2,1,5,1,Talladega College,33.434258,32,-86.113675,-2,1,5,2,AL,10175,10175,10175,,,,102298,35160
1225 Air Base Blvd,Montgomery,1,1,3,2,H Councill Trenholm State Technical College,32.350109,12,-86.343057,-2,1,5,4,AL,2664,2664,5328,,,,102313,36108-3199
3421 Meridian St N,Huntsville,1,1,3,2,J F Drake State Community and Technical College,34.772116,12,-86.573817,-2,1,5,4,AL,2664,2664,5328,,,,101462,35811
5375 Ingram Rd,Deatsville,1,2,3,2,J F Ingram State Technical College,32.582312,21,-86.392369,-2,1,5,4,AL,3924,3924,3924,,,,101471,36022
700 Pelham Road North,Jacksonville,1,2,9,1,Jacksonville State University,33.822128,13,-85.766644,-2,1,5,1,AL,8490,8490,16980,8376,8376,16752,101480,36265
220 Alco Dr,Brewton,1,2,3,2,Jefferson Davis Community College,31.101995,32,-87.085829,-2,1,5,4,AL,3330,3330,6660,,,,101499,36426
2601 Carson Rd,Birmingham,1,2,3,2,Jefferson State Community College,33.652439,12,-86.707387,-2,1,5,4,AL,3330,3330,6660,,,,101505,35215-3098
6250 U S Highway 31 N,Tanner,1,2,3,2,John C Calhoun State Community College,34.65428,41,-86.949131,-2,1,5,4,AL,3270,3270,6540,,,,101514,35671
302 Bibb St,Marion,2,2,5,1,Judson College,32.630526,43,-87.316127,-2,1,5,2,AL,14620,14620,14620,,,,101541,36756
3060 Wilson Rd SW,Birmingham,1,1,3,2,Lawson State Community College-Birmingham Campus,33.451673,12,-86.890234,-2,1,5,4,AL,3360,3360,6720,,,,101569,35221-1717
138  Highway 35,Rainsville,1,2,3,2,Northeast Alabama Community College,34.545471,42,-85.911664,-2,1,5,4,AL,3330,3330,6660,,,,101897,35986
7000 Adventist Blvd NW,Huntsville,2,1,7,1,Oakwood University,34.756628,12,-86.661628,-2,1,5,2,AL,15258,15258,15258,12264,12264,12264,101912,35896
2800 South Alabama Avenue,Monroeville,1,2,3,2,Alabama Southern Community College,31.488925,41,-87.326352,-2,1,5,4,AL,3330,3330,6660,,,,101949,36460
7735 Atlanta Hwy,Montgomery,3,2,3,2,Prince Institute-Southeast,32.383091,12,-86.162213,-2,1,5,6,AL,8800,8800,8800,,,,101958,36117
I65 and Hwy 83,Evergreen,1,2,3,2,Reid State Technical College,31.46071,41,-86.964486,-2,1,5,4,AL,3330,3330,6660,,,,101994,36401
351 North Broad Street,Mobile,1,1,3,2,Bishop State Community College,30.693972,12,-88.056982,-2,1,5,4,AL,3330,3330,6660,,,,102030,36603-5898
800 Lakeshore Drive,Birmingham,2,2,9,1,Samford University,33.464578,21,-86.790932,-2,1,5,2,AL,25528,25528,25528,18416,18416,18416,102049,35229-2240
"1501 Lapsley St, Dinkins Hall",Selma,2,1,7,1,Selma University,32.420358,32,-87.033826,-2,1,5,2,AL,5640,5640,5640,3000,3000,3000,102058,36701
Station One,Livingston,1,2,8,1,University of West Alabama,32.59244,43,-88.186077,-2,1,5,1,AL,6510,6510,13020,7608,7608,15216,101587,35470
1000 Dannelly Blvd.,Andalusia,1,2,3,2,Lurleen B Wallace Community College,31.322947,41,-86.452262,-2,1,5,4,AL,3330,3330,6660,,,,101602,36420-1418
1101 Washington St,Marion,1,2,3,2,Marion Military Institute,32.622359,43,-87.317998,-2,1,5,4,AL,6000,6000,12000,,,,101648,36756-3207
5500 Myron Massey Blvd,Fairfield,2,1,5,1,Miles College,33.481306,21,-86.908605,-2,1,5,2,AL,10224,10224,10224,,,,101675,35064-2621
5735 College Parkway Drive,Mobile,2,2,7,1,University of Mobile,30.793247,41,-88.128934,-2,1,5,2,AL,17970,17970,17970,9036,9036,9036,101693,36613-2842
Station 6001,Montevallo,1,2,8,1,University of Montevallo,33.10625,21,-86.865099,-2,1,5,1,AL,9330,9330,19020,8136,8136,16584,101709,35115-6000
800 George Wallace Blvd,Muscle Shoals,1,2,3,2,Northwest-Shoals Community College,34.739567,13,-87.67733,-2,1,5,4,AL,3330,3330,6660,,,,101736,35661
One Harrison Plaza,Florence,1,2,8,1,University of North Alabama,34.80658,13,-87.680999,-2,1,5,1,AL,5592,5592,11184,4968,4968,9936,101879,35632-0001
University Avenue,Troy,1,2,9,1,Troy University,31.800128,41,-85.950191,-2,1,5,1,AL,6336,6336,12672,6084,6084,12168,102368,36082-0001
"Kresge Center, 3rd Floor",Tuskegee,2,1,9,1,Tuskegee University,32.431021,32,-85.710315,-2,1,5,2,AL,18100,18100,18100,18100,18100,18100,102377,36088-1920
One Academy Drive,Daphne,2,2,9,1,United States Sports Academy,30.639329,13,-87.91163,-2,1,5,2,AL,12600,12600,12600,15255,15255,15255,102395,36526-7055
1411 Indiana Avenue,Jasper,1,2,3,2,Bevill State Community College,33.835785,32,-87.265034,-2,1,5,4,AL,3330,3330,6660,,,,102429,35501
3211 Providence Drive,Anchorage,1,2,9,1,University of Alaska Anchorage,61.189554,11,-149.826135,-2,1,8,1,AK,5208,5208,17304,7820,7820,15980,102553,99508
248 E Elmwood,Palmer,2,2,5,1,Alaska Bible College,61.59843,32,-149.111341,-2,1,8,2,AK,9000,9000,9000,,,,102580,99645
505 South Chandalar Drive,Fairbanks,1,2,9,1,University of Alaska Fairbanks,64.857053,23,-147.824751,-2,1,8,1,AK,5208,5208,17304,7820,7820,15980,102614,99775-7500
11120 Glacier Highway,Juneau,1,2,7,1,University of Alaska Southeast,58.38427,33,-134.636346,-2,1,8,1,AK,5208,5208,17304,7820,7820,15980,102632,99801-8697
4101 University Dr,Anchorage,2,2,9,1,Alaska Pacific University,61.191235,11,-149.804242,-2,1,8,2,AK,29700,29700,29700,11120,11120,11120,102669,99508
2221 E Northern Lights Blvd Ste 120,Anchorage,3,2,5,1,Charter College-Anchorage,61.195786,11,-149.840178,-2,1,8,3,AK,19882,19882,19882,,,,102845,99508
303 Lowe Street,Valdez,1,2,3,2,Prince William Sound Community College,61.122364,43,-146.17799,-2,1,8,4,AK,4858,4858,4858,,,,103361,99686-0097
"10400 N. 25th Avenue, Suite 190",Phoenix,3,2,5,1,Everest College-Phoenix,33.580985,11,-112.113845,-2,1,6,3,AZ,12960,12960,12960,,,,103644,85021-1641
4750 S 44th Place,Phoenix,3,2,5,1,Collins College,33.40334,11,-111.98646,-2,1,6,3,AZ,14344,14344,14344,,,,103723,85040
1 Global Place,Glendale,2,2,8,1,Thunderbird School of Global Management,33.620887,21,-112.180861,-2,1,6,2,AZ,,,,66774,66774,66774,103778,85306-6000
10020 N 15th Ave,Phoenix,2,2,5,1,American Indian College of the Assemblies of God Inc,33.577738,11,-112.092247,-2,1,6,2,AZ,11700,11700,11700,,,,103787,85021
3012 East Route 66,Flagstaff,2,2,5,1,College America-Flagstaff,35.211152,13,-111.604793,-2,1,6,2,AZ,17211,17211,17211,,,,103945,86004
University Drive and Mill Avenue,Tempe,1,2,9,1,Arizona State University-Tempe,33.421922,12,-111.940011,-2,1,6,1,AZ,9343,9343,23136,10300,10300,21080,104151,85287
2020 S. Avenue 8E,Yuma,1,2,3,2,Arizona Western College,32.689306,13,-114.495968,-2,1,6,4,AZ,1776,1776,7224,,,,104160,85365-8834
1401 E University,Tucson,1,2,9,1,University of Arizona,32.232071,11,-110.950769,-2,1,6,1,AZ,9388,9388,26070,10508,10508,26380,104179,85721-0066
2525 N Country Club Rd,Tucson,3,2,7,1,Southwest University of Visual Arts-Tucson,32.252384,11,-110.927321,-2,1,6,3,AZ,34416,34416,34416,21000,21000,21000,104188,85716
8470 N Overfield Rd,Coolidge,1,2,3,2,Central Arizona College,32.957092,41,-111.652501,-2,1,6,4,AZ,2310,2310,10260,,,,104346,85128-9030
4585 E Speedway Blvd.,Tucson,3,2,5,1,Brown Mackie College-Tucson,32.236736,11,-110.895086,-2,1,6,3,AZ,12384,12384,12384,,,,104364,85712
4190 W Highway 80,Douglas,1,2,3,2,Cochise College,31.365757,42,-109.690422,-2,1,6,4,AZ,1752,1752,6000,,,,104425,85607-6190
615 N. Stadium Ave.,Thatcher,1,2,3,2,Eastern Arizona College,32.840719,33,-109.761664,-2,1,6,4,AZ,1920,1920,8820,,,,104577,85552-0769
3700 Willow Creek Road,Prescott,2,2,7,1,Embry-Riddle Aeronautical University-Prescott,34.615678,41,-112.452285,-2,1,6,2,AZ,30120,30120,30120,15060,15060,15060,104586,86301-3720
Taliesin West,Scottsdale,2,2,7,1,Frank Lloyd Wright School of Architecture,33.60715,41,-111.846477,-2,1,6,2,AZ,24000,24000,24000,24000,24000,24000,104665,85261-4430
6000 W Olive Ave,Glendale,1,2,3,2,Glendale Community College,33.567483,21,-112.188334,-2,1,6,4,AZ,1944,1944,7728,,,,104708,85302
3300 W Camelback Rd,Phoenix,3,2,9,1,Grand Canyon University,33.512172,11,-112.129917,-2,1,6,3,AZ,7842,7842,7842,7296,7296,7296,104717,85017
1515 E Indian School Road,Phoenix,3,2,5,1,Anthem College-Phoenix,33.494316,11,-112.050186,-2,1,6,3,AZ,13550,13550,13550,,,,104805,85014
108 N. 40th Street,Phoenix,1,2,4,2,GateWay Community College,33.4495,11,-111.996527,-2,1,6,4,AZ,1944,1944,7728,,,,105145,85034
1833 W Southern Ave,Mesa,1,2,3,2,Mesa Community College,33.391256,11,-111.871494,-2,1,6,4,AZ,1944,1944,7728,,,,105154,85202
1455 W. River Rd,Tucson,3,2,5,1,ITT Technical Institute-Tucson,32.297261,21,-110.997501,-2,1,6,3,AZ,17748,17748,17748,,,,105163,85704-5829
5005 S. Wendler Drive,Tempe,3,2,5,1,ITT Technical Institute-Tempe,33.380355,12,-111.969169,-2,1,6,3,AZ,17748,17748,17748,,,,105172,85282
1971 Jagerson Ave,Kingman,1,2,3,2,Mohave Community College,35.270737,41,-114.030244,-2,1,6,4,AZ,2340,2340,9360,,,,105206,86409-1238
"Route 12, One Circle Drive",Tsaile,1,2,5,1,Dine College,36.293328,43,-109.21684,-2,1,6,1,AZ,720,720,720,,,,105297,86556
"1900 S. Knoles Dr, Babbitt Administrative Center",Flagstaff,1,2,9,1,Northern Arizona University,35.180095,13,-111.657653,-2,1,6,1,AZ,9640,9640,14229,8572,8572,16207,105330,86011-4132
2251 E. Navajo Blvd.,Holbrook,1,2,3,2,Northland Pioneer College,34.922221,41,-110.1316,-2,1,6,4,AZ,1536,1536,7320,,,,105349,86025-0610
10020 North 25th Avenue,Phoenix,2,2,8,1,Ottawa University-Phoenix,33.577907,11,-112.113447,-2,1,6,2,AZ,10260,10260,10260,10260,10260,10260,105367,85021
1202 W Thomas Rd,Phoenix,1,2,3,2,Phoenix College,33.481361,11,-112.088293,-2,1,6,4,AZ,1944,1944,7728,,,,105428,85013
1625 West Fountainhead Parkway,Tempe,3,2,8,1,University of Phoenix-Phoenix Campus,33.40319,12,-111.966271,-2,1,6,3,AZ,10666,10666,10666,13772,13772,13772,105516,85282-2371
4905C East  Broadway Blvd.,Tucson,1,2,3,2,Pima Community College,32.221772,11,-110.887019,-2,1,6,4,AZ,1572,1572,7896,,,,105525,85709-1275
220 Grove Ave,Prescott,2,2,9,1,Prescott College,34.5445,13,-112.476509,-2,1,6,2,AZ,28320,28320,28320,17760,17760,17760,105589,86301
2323 W 14th St,Tempe,1,2,3,2,Rio Salado College,33.413138,12,-111.975201,-2,1,6,4,AZ,1944,1944,7728,,,,105668,85281
9000 E Chaparral Rd,Scottsdale,1,2,3,2,Scottsdale Community College,33.509489,41,-111.887298,-2,1,6,4,AZ,1944,1944,7728,,,,105747,85256
7050 S 24th St,Phoenix,1,2,3,2,South Mountain Community College,33.381001,11,-112.057515,-2,1,6,4,AZ,1944,1944,7728,,,,105792,85042
2625 E Cactus Rd,Phoenix,2,2,5,1,Arizona Christian University,33.595117,11,-112.026211,-2,1,6,2,AZ,20952,20952,20952,,,,105899,85032-7097
1601 W Fountainhead Parkway,Tempe,3,2,7,1,Western International University,33.403635,12,-111.96412,-2,1,6,3,AZ,6311,6311,6311,9143,9143,9143,106102,85282
1100 E Sheldon St,Prescott,1,2,3,2,Yavapai College,34.547512,13,-112.454156,-2,1,6,4,AZ,1872,1872,7920,,,,106148,86301
2801 S University Ave,Little Rock,1,2,9,1,University of Arkansas at Little Rock,34.726644,12,-92.341835,-2,1,5,1,AR,5525,5525,15302,5690,5690,13030,106245,72204
4301 W Markham,Little Rock,1,2,9,1,University of Arkansas for Medical Sciences,34.749718,12,-92.320945,-2,1,5,1,AR,7200,7200,17300,9500,9500,18900,106263,72205-7199
1621 Dr. Martin Luther King Drive,Little Rock,2,1,5,1,Arkansas Baptist College,34.734751,12,-92.290555,-2,1,5,2,AR,8040,8040,8040,,,,106306,72202-6068
2300 Highland Road,Batesville,2,2,5,1,Lyon College,35.778934,33,-91.628115,-2,1,5,2,AR,23370,23370,23370,,,,106342,72501
Administration Bldg 425,Fayetteville,1,2,9,1,University of Arkansas,36.06153,13,-94.178214,-2,1,5,1,AR,6354,6354,17610,6507,6507,15396,106397,72701
1200 N University Mail Slot 4789,Pine Bluff,1,1,9,1,University of Arkansas at Pine Bluff,34.242192,13,-92.021263,-2,1,5,1,AR,4290,4290,9960,4368,4368,10080,106412,71601
1000 Iowa Street,Beebe,1,2,3,2,Arkansas State University-Beebe,35.074512,31,-91.896165,-2,1,5,4,AR,2112,2112,3648,,,,106449,72012-1000
2105 E. Aggie Road,Jonesboro,1,2,9,1,Arkansas State University-Main Campus,35.842779,13,-90.680478,-2,1,5,1,AR,5610,5610,11220,4284,4284,8568,106458,72401
Administration Bldg 200; 1509 N Boulder Ave,Russellville,1,2,8,1,Arkansas Tech University,35.295227,33,-93.13233,-2,1,5,1,AR,4776,4776,9552,4482,4482,8964,106467,72801-2222
Highway 425 South,Monticello,1,2,7,1,University of Arkansas at Monticello,33.589788,33,-91.812971,-2,1,5,1,AR,4103,4103,9900,4230,4230,8640,106485,71656
11900 Col Glenn Rd Ste 1000,Little Rock,2,2,4,2,Baptist Health Schools-Little Rock,34.713115,12,-92.40692,-2,1,5,5,AR,6994,6994,6994,,,,106546,72210-2820
1410 Hwy 304 East,Pocahontas,1,2,3,2,Black River Technical College,36.239793,41,-90.951033,-2,1,5,4,AR,1872,1872,4560,,,,106625,72455
201 Donaghey Ave,Conway,1,2,9,1,University of Central Arkansas,35.078196,13,-92.45931,-2,1,5,1,AR,5745,5745,11490,4247,4247,8495,106704,72035-0001
1501 College Avenue,Conway,2,2,5,1,Central Baptist College,35.084574,13,-92.444102,-2,1,5,2,AR,11850,11850,11850,,,,106713,72034
183 College Drive,De Queen,1,2,3,2,Cossatot Community College of the University of Arkansas,34.043389,41,-94.3673,-2,1,5,4,AR,1710,2010,4560,,,,106795,71832
100 College Dr,Paragould,2,2,5,1,Crowley's Ridge College,36.066239,41,-90.58482,-2,1,5,2,AR,9300,9300,9300,,,,106810,72450
1620 Newcastle Road,Forrest City,1,2,2,3,Crowley's Ridge Technical Institute,35.041908,32,-90.767807,-2,1,5,7,AR,1350,1350,1350,,,,106829,72335-0925
1700 Newcastle Rd,Forrest City,1,2,3,2,East Arkansas Community College,35.039673,32,-90.767445,-2,1,5,4,AR,2250,2520,3000,,,,106883,72335-2204
101 College Dr,Hot Springs,1,2,3,2,National Park Community College,34.512731,23,-93.117111,-2,1,5,4,AR,2550,2850,4020,,,,106980,71913
2005 White Drive,Batesville,1,2,3,2,University of Arkansas Community College-Batesville,35.79293,33,-91.616123,-2,1,5,4,AR,1584,1872,3360,,,,106999,72503-3350
915 E. Market Ave.,Searcy,2,2,9,1,Harding University,35.249605,32,-91.729008,-2,1,5,2,AR,15690,15690,15690,11574,11574,11574,107044,72143
1100 Henderson Street,Arkadelphia,1,2,8,1,Henderson State University,34.127792,32,-93.060313,-2,1,5,1,AR,4584,4584,9840,4284,4284,8802,107071,71999-0001
1600 Washington Ave,Conway,2,2,7,1,Hendrix College,35.09972,13,-92.442021,-2,1,5,2,AR,37358,37358,37358,37200,37200,37200,107080,72032-3080
2000 W University St,Siloam Springs,2,2,8,1,John Brown University,36.191077,32,-94.559088,-2,1,5,2,AR,21736,21736,21736,12360,12360,12360,107141,72761
2000 W.  Broadway,West Memphis,1,2,3,2,Mid-South Community College,35.145736,21,-90.22285,-2,1,5,4,AR,2160,2640,7200,,,,107318,72301-3829
2501 S Division,Blytheville,1,2,3,2,Arkansas Northeastern College,35.897362,41,-89.922491,-2,1,5,4,AR,1736,2016,3416,,,,107327,72316-1109
1515 Pioneer Dr,Harrison,1,2,3,2,North Arkansas College,36.220528,33,-93.087317,-2,1,5,4,AR,1584,2160,3864,,,,107460,72601-5508
709 S Old Missouri Rd,Springdale,1,2,2,3,Northwest Technical Institute,36.178617,13,-94.116433,-2,1,5,7,AR,1890,1890,1890,,,,107488,72764
410 Ouachita St,Arkadelphia,2,2,5,1,Ouachita Baptist University,34.125045,32,-93.052442,-2,1,5,2,AR,21860,21860,21860,,,,107512,71998-0001
One College Circle,Malvern,1,2,3,2,College of the Ouachitas,34.378745,31,-92.821416,-2,1,5,4,AR,2550,2550,5100,,,,107521,72104-0816
218 College Dr,Melbourne,1,2,3,2,Ozarka College,36.053031,43,-91.896355,-2,1,5,4,AR,1896,1896,4248,,,,107549,72556-0010
415 N College Ave,Clarksville,2,2,5,1,University of the Ozarks,35.477785,33,-93.467924,-2,1,5,2,AR,23750,23750,23750,,,,107558,72830
1537 University Blvd.,Morrilton,1,2,3,2,University of Arkansas Community College-Morrilton,35.172136,32,-92.728507,-2,1,5,4,AR,2400,2610,3720,,,,107585,72110
900 W. Daisy Bates Drive,Little Rock,2,1,5,1,Philander Smith College,34.73666,12,-92.28242,-2,1,5,2,AR,11804,11804,11804,,,,107600,72202-3799
1000 Campus Drive,Helena,1,2,3,2,Phillips Community College of the University of Arkansas,34.544976,41,-90.617745,-2,1,5,4,AR,1860,2220,3540,,,,107619,72342-0785
1900 Hazel St.,Pine Bluff,1,2,3,2,Southeast Arkansas College,34.209797,13,-92.024731,-2,1,5,4,AR,2460,2460,4920,,,,107637,71603
3000 W Scenic Dr,North Little Rock,1,2,4,2,Pulaski Technical College,34.78243,13,-92.299729,-2,1,5,4,AR,2850,2850,4590,,,,107664,72118-3347
2500 S Main,Hope,1,2,3,2,University of Arkansas Community College-Hope,33.64791,32,-93.584528,-2,1,5,4,AR,1815,1965,3930,,,,107725,71801
1100 College Dr,Mena,1,2,3,2,Rich Mountain Community College,34.590793,33,-94.2197,-2,1,5,4,AR,1584,1920,4440,,,,107743,71953
604 Locust St,N Little Rock,2,1,3,2,Shorter College,34.75933,13,-92.261331,-2,1,5,5,AR,1800,1800,1800,,,,107840,72114
60 W Fulbright Avenue,Walnut Ridge,2,2,5,1,Williams Baptist College,36.126825,42,-90.939876,-2,1,5,2,AR,12900,12900,12900,,,,107877,72476
300 S West Ave,El Dorado,1,2,3,2,South Arkansas Community College,33.209446,33,-92.666087,-2,1,5,4,AR,1896,2184,3960,,,,107974,71731-7010
100 E. University,Magnolia,1,2,7,1,Southern Arkansas University Main Campus,33.291195,33,-93.235087,-2,1,5,1,AR,6120,6120,9270,4572,4572,6660,107983,71753
6415 Spellman Road,Camden,1,2,3,2,Southern Arkansas University Tech,33.63037,42,-92.719498,-2,1,5,4,AR,3240,3240,4680,,,,107992,71701-1906
5210 Grand Ave,Fort Smith,1,2,5,1,University of Arkansas-Fort Smith,35.385345,13,-94.374073,-2,1,5,1,AR,3192,3192,8736,,,,108092,72913-3649
79 New Montgomery,San Francisco,3,2,7,1,Academy of Art University,37.787748,11,-122.400686,-2,1,8,3,CA,18840,18840,18840,21240,21240,21240,108232,94105
10863 Gold Center Dr,Rancho Cordova,3,2,5,1,ITT Technical Institute-Rancho Cordova,38.59172,13,-121.281506,-2,1,8,3,CA,17748,17748,17748,,,,108250,95670-6034
1601 Clay St,Oakland,2,2,7,1,Academy of Chinese Culture and Health Sciences,37.806662,11,-122.272733,-2,1,8,2,CA,,,,12822,12822,12822,108269,94612
555 Ralph Appezzato Memorial Pky,Alameda,1,2,3,2,College of Alameda,37.78239,21,-122.279261,-2,1,8,4,CA,1104,1104,6216,,,,108667,94501
800 South College Drive,Santa Maria,1,2,4,2,Allan Hancock College,34.942979,12,-120.421486,-2,1,8,4,CA,1288,1288,6608,,,,108807,93454-6399
1336 N La Brea,Los Angeles,2,2,4,2,American Academy of Dramatic Arts-Los Angeles,34.095315,11,-118.344097,-2,1,8,5,CA,29900,29900,29900,,,,108852,90028
2606 Dwight Way,Berkeley,2,2,9,1,American Baptist Seminary of the West,37.865252,12,-122.256149,-2,1,8,2,CA,,,,17030,17030,17030,108861,94704-3029
2021 N Western Ave,Los Angeles,2,2,7,1,American Film Institute Conservatory,34.10846,11,-118.309989,-2,1,8,2,CA,,,,41151,41151,41151,108870,90027-1625
30 Grant Ave,San Francisco,2,2,7,1,American Conservatory Theater,37.787326,11,-122.404945,-2,1,8,2,CA,25000,25000,25000,25000,25000,25000,109086,94108-5834
4700 College Oak Dr,Sacramento,1,2,4,2,American River College,38.649734,21,-121.346012,-2,1,8,4,CA,0,0,6096,,,,109208,95841-4286
3041 West  Ave K,Lancaster,1,2,3,2,Antelope Valley College,34.676207,21,-118.186166,-2,1,8,4,CA,1104,1104,5664,,,,109350,93536-5426
1700 Lida St,Pasadena,2,2,7,1,Art Center College of Design,34.170844,12,-118.186901,-2,1,8,2,CA,35980,35980,35980,38026,38026,38026,109651,91103
901 E Alosta,Azusa,2,2,9,1,Azusa Pacific University,34.130865,21,-117.88795,-2,1,8,2,CA,31416,31416,31416,10343,10343,10343,109785,91702-7000
1801 Panorama Dr,Bakersfield,1,2,3,2,Bakersfield College,35.4108,11,-118.973491,-2,1,8,4,CA,1288,1288,6608,,,,109819,93305-1299
2700 Barstow Road,Barstow,1,2,3,2,Barstow Community College,34.871451,32,-117.02523,-2,1,8,4,CA,1104,1104,5400,,,,109907,92311
730 N. Euclid St,Anaheim,2,2,9,1,Bethesda University of California,33.842295,11,-117.941323,-2,1,8,2,CA,8200,8200,8200,7500,7500,7500,110060,92801
13800 Biola Ave,La Mirada,2,2,9,1,Biola University,33.904823,21,-118.017342,-2,1,8,2,CA,32142,32142,32142,9342,9342,9342,110097,90639-0001
25/27 Mason Street,Santa Barbara,3,2,7,1,Brooks Institute,34.418552,13,-119.695991,-2,1,8,3,CA,19620,19620,19620,12600,12600,12600,110185,93101
3580 Wilshire blvd suite 400,Los Angeles,3,2,6,1,Bryan University,34.061406,11,-118.302882,-2,1,8,3,CA,11645,11645,11645,16496,16496,16496,110219,90010
4900 Meridian Street,Normal,1,1,9,1,Alabama A & M University,34.783368,12,-86.568502,-2,1,5,1,AL,5592,5592,11184,6372,6372,12744,100654,35762
Administration Bldg Suite 1070,Birmingham,1,2,9,1,University of Alabama at Birmingham,33.50223,12,-86.80917,-2,1,5,1,AL,7206,7206,16398,6804,6804,15444,100663,35294-0110
1200 Taylor Rd,Montgomery,2,2,9,1,Amridge University,32.362609,12,-86.17401,-2,1,5,2,AL,6900,6900,6900,10870,10870,10870,100690,36117-3553
301 Sparkman Dr,Huntsville,1,2,9,1,University of Alabama in Huntsville,34.722818,12,-86.63842,-2,1,5,1,AL,9192,9192,21506,11342,11342,26516,100706,35899
915 S Jackson Street,Montgomery,1,1,9,1,Alabama State University,32.364317,12,-86.295677,-2,1,5,1,AL,6936,6936,13872,8232,8232,16464,100724,36104-0271
739 University Blvd,Tuscaloosa,1,2,9,1,The University of Alabama,33.2144,13,-87.545766,-2,1,5,1,AL,9450,9450,23950,9450,9450,23950,100751,35487-0166
1675 Cherokee Rd,Alexander City,1,2,3,2,Central Alabama Community College,32.924429,32,-85.94653,-2,1,5,4,AL,4200,4200,7500,,,,100760,35010
300 N Beaty St,Athens,1,2,5,1,Athens State University,34.805625,31,-86.96514,-2,1,5,1,AL,5010,5010,10020,,,,100812,35611
7440 East Drive,Montgomery,1,2,9,1,Auburn University at Montgomery,32.369939,12,-86.177351,-2,1,5,1,AL,8100,8100,24300,7992,7992,23976,100830,36117-3596
"Auburn, Alabama",Auburn University,1,2,9,1,Auburn University,32.600201,13,-85.492409,-2,1,5,1,AL,8256,8256,24768,8262,8262,24786,100858,36849
900 Arkadelphia Road,Birmingham,2,2,5,1,Birmingham Southern College,33.515453,12,-86.853636,-2,1,5,2,AL,29600,29600,29600,,,,100937,35254
2602 College Drive,Phenix City,1,2,3,2,Chattahoochee Valley Community College,32.42391,41,-85.031485,-2,1,5,4,AL,3330,3330,6660,,,,101028,36869
1712 Broad Street,Selma,2,1,5,1,Concordia College Alabama,32.42443,32,-87.023531,-2,1,5,2,AL,7920,7920,7920,,,,101073,36701
5355 Vaughn Rd,Montgomery,3,2,7,1,South University-Montgomery,32.342684,12,-86.216488,-2,1,5,3,AL,16185,16185,16185,22821,22821,22821,101116,36116
600 Plaza Drive,Enterprise,1,2,3,2,Enterprise State Community College,31.297496,32,-85.836956,-2,1,5,4,AL,3108,3108,6216,,,,101143,36330-1300
1900 US Hwy 31 S,Bay Minette,1,2,3,2,James H Faulkner State Community College,30.852045,32,-87.779758,-2,1,5,4,AL,3360,3360,6690,,,,101161,36507-2698
5345 Atlanta Hwy,Montgomery,2,2,9,1,Faulkner University,32.384181,12,-86.21641,-2,1,5,2,AL,16530,16530,16530,8820,8820,8820,101189,36109-3378
1001 George Wallace Dr,Gadsden,1,1,3,2,Gadsden State Community College,33.991866,13,-85.991299,-2,1,5,4,AL,3330,3330,6660,,,,101240,35903
1141 Wallace Drive,Dothan,1,2,3,2,George C Wallace State Community College-Dothan,31.316086,41,-85.46355,-2,1,5,4,AL,3330,3330,6660,,,,101286,36303-9234
801 Main St NW,Hanceville,1,2,3,2,George C Wallace State Community College-Hanceville,34.07341,32,-86.781745,-2,1,5,4,AL,3330,3330,6660,,,,101295,35077-2000
3000 Earl Goodwin Parkway,Selma,1,2,3,2,George C Wallace State Community College-Selma,32.445611,32,-87.01324,-2,1,5,4,AL,3330,3330,6660,,,,101301,36703-2808
280 West Valley Ave,Birmingham,3,2,5,1,Herzing University-Birmingham,33.468105,21,-86.832299,-2,1,5,3,AL,11150,11150,11150,,,,101365,35209
1500 East Fairview Avenue,Montgomery,2,2,5,1,Huntingdon College,32.350939,12,-86.285313,-2,1,5,2,AL,20742,20742,20742,,,,101435,36106-2148
3625 Helton Dr,Florence,2,2,7,1,Heritage Christian University,34.859089,13,-87.662062,-2,1,5,2,AL,8952,8952,8952,3672,3672,3672,101453,35630-9977
3536 Butte Campus Drive,Oroville,1,2,4,2,Butte College,39.649116,42,-121.644691,-2,1,8,4,CA,1104,1104,5904,,,,110246,95965-8399
19900 Plummer Street,Chatsworth,2,2,9,1,Phillips Graduate Institute,34.24202,11,-118.567621,-2,1,8,2,CA,,,,22204,22204,22204,110307,91311
1453 Mission Street,San Francisco,2,2,9,1,California Institute of Integral Studies,37.774768,11,-122.416537,-2,1,8,2,CA,25458,25458,25458,17658,17658,17658,110316,94103
6500 Soquel Dr,Aptos,1,2,3,2,Cabrillo College,36.9891,22,-121.927926,-2,1,8,4,CA,1288,1288,5628,,,,110334,95003
8432 Magnolia Ave,Riverside,2,2,7,1,California Baptist University,33.928569,11,-117.42587,-2,1,8,2,CA,26312,26312,26312,10080,10080,10080,110361,92504-3297
1111 Eighth Street,San Francisco,2,2,7,1,California College of the Arts,37.767266,11,-122.400263,-2,1,8,2,CA,39984,39984,39984,41670,41670,41670,110370,94107-2247
200 McAllister St,San Francisco,1,2,9,1,University of California-Hastings College of Law,37.780718,11,-122.415395,-2,1,8,1,CA,,,,40100,40100,40100,110398,94102-4978
1200 E California Blvd,Pasadena,2,2,9,1,California Institute of Technology,34.139275,12,-118.12574,-2,1,8,2,CA,39990,39990,39990,39990,39990,39990,110404,91125
60 W Olsen Rd,Thousand Oaks,2,2,9,1,California Lutheran University,34.225551,12,-118.879467,-2,1,8,2,CA,35270,35270,35270,16560,16560,16560,110413,91360-2787
1 Grand Ave.,San Luis Obispo,1,2,7,1,California Polytechnic State University-San Luis Obispo,35.29889,23,-120.65856,-2,1,8,1,CA,5472,5472,16632,6738,6738,17898,110422,93407
10455 Pomerado Road,San Diego,2,2,9,1,Alliant International University,32.897056,11,-117.094398,-2,1,8,2,CA,15336,15336,15336,21466,21466,21466,110468,92131-1799
9001 Stockdale Hwy,Bakersfield,1,2,7,1,California State University-Bakersfield,35.350005,11,-119.104711,-2,1,8,1,CA,5472,5472,16632,6738,6738,17898,110486,93311-1099
One University Circle,Turlock,1,2,9,1,California State University-Stanislaus,37.52577,23,-120.852511,-2,1,8,1,CA,5472,5472,16632,6738,6738,17898,110495,95382-0299
5500 University Pky,San Bernardino,1,2,9,1,California State University-San Bernardino,34.182987,12,-117.322508,-2,1,8,1,CA,5472,5472,16632,6738,6738,17898,110510,92407-2397
3801 West Temple Avenue,Pomona,1,2,9,1,California State Polytechnic University-Pomona,34.054273,21,-117.819019,-2,1,8,1,CA,5472,5472,16632,6738,6738,17898,110529,91768
First and Normal Sts,Chico,1,2,7,1,California State University-Chico,39.728003,13,-121.846333,-2,1,8,1,CA,5472,5472,16632,6738,6738,17898,110538,95929-0150
1000 E Victoria St,Carson,1,2,8,1,California State University-Dominguez Hills,33.86524,13,-118.259316,-2,1,8,1,CA,5472,5472,16632,6738,6738,17898,110547,90747-0005
5241 N Maple Ave,Fresno,1,2,9,1,California State University-Fresno,36.814477,11,-119.748258,-2,1,8,1,CA,5472,5472,16632,6738,6738,17898,110556,93740
800 N State College Blvd,Fullerton,1,2,9,1,California State University-Fullerton,33.883627,21,-117.885349,-2,1,8,1,CA,5472,5472,16632,6738,6738,17898,110565,92831-3599
25800 Carlos Bee Blvd,Hayward,1,2,9,1,California State University-East Bay,37.65707,12,-122.058073,-2,1,8,1,CA,5472,5472,16632,6738,6738,17898,110574,94542
1250 Bellflower Blvd,Long Beach,1,2,9,1,California State University-Long Beach,33.782752,11,-118.1123,-2,1,8,1,CA,5472,5472,16632,6738,6738,17898,110583,90840-0115
5151 State University Dr,Los Angeles,1,2,9,1,California State University-Los Angeles,34.066927,11,-118.168965,-2,1,8,1,CA,5472,5472,16632,6738,6738,17898,110592,90032
18111 Nordhoff St,Northridge,1,2,9,1,California State University-Northridge,34.23671,11,-118.526817,-2,1,8,1,CA,5472,5472,16632,6738,6738,17898,110608,91330
6000 J St,Sacramento,1,2,9,1,California State University-Sacramento,38.55745,11,-121.42194,-2,1,8,1,CA,5472,5472,16632,6738,6738,17898,110617,95819-2694
200 California Hall,Berkeley,1,2,9,1,University of California-Berkeley,37.871519,12,-122.260401,-2,1,8,1,CA,11220,11220,34098,11220,11220,26322,110635,94720
One Shields Avenue,Davis,1,2,9,1,University of California-Davis,38.539895,23,-121.751958,-2,1,8,1,CA,11220,11220,34098,11220,11220,26322,110644,95616-8678
501 Aldrich Hall,Irvine,1,2,9,1,University of California-Irvine,33.648434,12,-117.841248,-2,1,8,1,CA,11220,11220,34098,11220,11220,26322,110653,92697
405 Hilgard Ave,Los Angeles,1,2,9,1,University of California-Los Angeles,34.068892,11,-118.443901,-2,1,8,1,CA,11220,11220,34098,11220,11220,26322,110662,90095-1405
900 University Ave,Riverside,1,2,9,1,University of California-Riverside,33.97588,11,-117.331098,-2,1,8,1,CA,11220,11220,34098,11220,11220,26322,110671,92521
9500 Gilman Dr,La Jolla,1,2,9,1,University of California-San Diego,32.876598,11,-117.237793,-2,1,8,1,CA,11220,11220,34098,11220,11220,26322,110680,92093
500 Parnassus Ave,San Francisco,1,2,9,1,University of California-San Francisco,37.762736,11,-122.458049,-2,1,8,1,CA,,,,11220,11220,26322,110699,94143-0244
5221 Cheadle Hall,Santa Barbara,1,2,9,1,University of California-Santa Barbara,34.415402,22,-119.848031,-2,1,8,1,CA,11220,11220,34098,11220,11220,26322,110705,93106
1156 High St,Santa Cruz,1,2,9,1,University of California-Santa Cruz,36.997258,13,-122.067993,-2,1,8,1,CA,11220,11220,34098,11220,11220,26322,110714,95064-1011
1069 East Meadow Cr,Palo Alto,2,2,9,1,Sofia University,37.430325,13,-122.10866,-2,1,8,2,CA,475,475,475,21750,21750,21750,110778,94303
4881 E University Ave,Fresno,2,2,5,1,California Christian College,36.767596,11,-119.732752,-2,1,8,2,CA,7680,7680,7680,,,,110918,93703-3599
6602 Convoy Court Ste 100,San Diego,2,2,5,1,California College San Diego,32.83529,11,-117.167121,-2,1,8,2,CA,18480,18480,18480,,,,110945,92111-1009
350 Rhode Island Street,San Francisco,3,2,3,2,Le Cordon Bleu College of Culinary Arts-San Francisco,37.765415,11,-122.402643,-2,1,8,6,CA,13761,13761,13761,,,,111009,94103
24700 W McBean Pky,Valencia,2,2,9,1,California Institute of the Arts,34.393337,21,-118.567303,-2,1,8,2,CA,39976,39976,39976,39976,39976,39976,111081,91355-2397
200 Maritime Academy Dr,Vallejo,1,2,5,1,California Maritime Academy,38.069061,12,-122.231551,-2,1,8,1,CA,5472,5472,16632,,,,111188,94590
225 Cedar St,San Diego,2,2,9,1,California Western School of Law,32.72194,11,-117.162597,-2,1,8,2,CA,,,,27670,27670,27670,111391,92101-3046
4200 Farm Hill Blvd.,Redwood City,1,2,4,2,Canada College,37.447365,21,-122.265549,-2,1,8,4,CA,1288,1288,8364,,,,111434,94061-1099
26455 Rockwell Canyon Rd,Santa Clarita,1,2,3,2,College of the Canyons,34.403121,21,-118.569524,-2,1,8,4,CA,1104,1104,5400,,,,111461,91355-1899
11110 Alondra Blvd,Norwalk,1,2,4,2,Cerritos College,33.88584,21,-118.097263,-2,1,8,4,CA,1288,1288,7056,,,,111887,90650-6298
3000 College Heights Blvd,Ridgecrest,1,2,3,2,Cerro Coso Community College,35.567763,41,-117.667706,-2,1,8,4,CA,1288,1288,6608,,,,111896,93555-9571
25555 Hesperian Blvd,Hayward,1,2,3,2,Chabot College,37.642513,12,-122.106969,-2,1,8,4,CA,0,0,5832,,,,111920,94545
5885 Haven Ave,Rancho Cucamonga,1,2,4,2,Chaffey College,34.14705,21,-117.573086,-2,1,8,4,CA,1104,1104,6096,,,,111939,91737-3002
One University Dr.,Orange,2,2,9,1,Chapman University,33.793678,12,-117.851481,-2,1,8,2,CA,42890,42890,42890,22686,22686,22686,111948,92866
1731 E 120th St,Los Angeles,2,2,8,1,Charles R Drew University of Medicine and Science,33.925658,21,-118.242791,-2,1,8,2,CA,13813,13813,13813,21466,21466,21466,111966,90059
1530 Concordia West,Irvine,2,2,7,1,Concordia University-Irvine,33.6535,12,-117.81063,-2,1,8,2,CA,29000,29000,29000,7231,7231,7231,112075,92612-3203
2100 Greenfield Dr,El Cajon,2,2,6,1,San Diego Christian College,32.799999,21,-116.903073,-2,1,8,2,CA,24540,24540,24540,12780,12780,12780,112084,92019-1157
2451 Ridge Road,Berkeley,2,2,9,1,Church Divinity School of the Pacific,37.876169,12,-122.261391,-2,1,8,2,CA,,,,16800,16800,16800,112127,94709-1211
1000 W Foothill Blvd,Glendora,1,2,4,2,Citrus College,34.135487,21,-117.885266,-2,1,8,4,CA,1104,1104,5016,,,,112172,91741-1899
50 Phelan Ave,San Francisco,1,2,3,2,City College of San Francisco,37.725953,11,-122.451155,-2,1,8,4,CA,0,0,5474,,,,112190,94112-1898
150 E Tenth St,Claremont,2,2,9,1,Claremont Graduate University,34.103778,21,-117.712394,-2,1,8,2,CA,,,,30420,30420,30420,112251,91711-6160
500 E 9th St,Claremont,2,2,7,1,Claremont McKenna College,34.102323,21,-117.706593,-2,1,8,2,CA,45380,45380,45380,52554,52554,52554,112260,91711-6400
11460 Warner Ave.,Fountain Valley,1,2,3,2,Coastline Community College,33.609771,13,-117.861844,-2,1,8,4,CA,1104,1104,5256,,,,112385,92708-2597
1175 Bordeaux  Drive,Sunnyvale,3,2,7,1,Cogswell College,37.407027,12,-122.024177,-2,1,8,3,CA,15980,15980,15980,35010,35010,35010,112394,94089
8888 Balboa Ave,San Diego,2,2,7,1,Coleman University,32.821962,11,-117.136493,-2,1,8,2,CA,20100,20100,20100,19750,19750,19750,112446,92123-1506
309 E 2nd St,Pomona,2,2,9,1,Western University of Health Sciences,34.058092,21,-117.747732,-2,1,8,2,CA,,,,21360,21360,21360,112525,91766-1854
11600 Columbia College Dr,Sonora,1,2,3,2,Columbia College,38.030361,41,-120.387603,-2,1,8,4,CA,1104,1104,6000,,,,112561,95370
18618 Oxnard St,Tarzana,2,2,5,1,Columbia College-Hollywood,34.179596,11,-118.538394,-2,1,8,2,CA,18375,18375,18375,,,,112570,91356-1411
1111 East Artesia Blvd.,Compton,1,2,3,2,El Camino College-Compton Center,33.876665,21,-118.209186,-2,1,8,4,CA,1104,1104,5184,,,,112686,90221-5393
2600 Mission Bell Dr,San Pablo,1,2,3,2,Contra Costa College,37.968623,21,-122.342386,-2,1,8,4,CA,1288,1288,7028,,,,112826,94806-3195
8401 Center Parkway,Sacramento,1,2,4,2,Cosumnes River College,38.453836,11,-121.422971,-2,1,8,4,CA,0,0,6096,,,,113096,95823-5799
11711 Sand Canyon Road,Yucaipa,1,2,4,2,Crafton Hills College,34.038513,41,-117.100826,-2,1,8,4,CA,1104,1104,3888,,,,113111,92339-1799
Highway 1,San Luis Obispo,1,2,4,2,Cuesta College,35.329859,23,-120.741624,-2,1,8,4,CA,1196,1196,6370,,,,113193,93403-8106
900 Rancho San Diego Pky,El Cajon,1,2,3,2,Cuyamaca College,32.743072,21,-116.941044,-2,1,8,4,CA,1334,1334,6844,,,,113218,92019
9200 Valley View,Cypress,1,2,4,2,Cypress College,33.827625,21,-118.023889,-2,1,8,4,CA,1104,1104,5932,,,,113236,90630-5897
21250 Stevens Creek Blvd.,Cupertino,1,2,4,2,De Anza College,37.319176,13,-122.045365,-2,1,8,4,CA,1395,1395,7875,,,,113333,95014
131 H Street,Blue Lake,2,2,7,1,Dell'Arte International School of Physical Theatre,40.880871,41,-123.988878,-2,1,8,2,CA,12000,12000,12000,16500,16500,16500,113537,95525-0816
43-500 Monterey Ave,Palm Desert,1,2,3,2,College of the Desert,33.732484,21,-116.38761,-2,1,8,4,CA,1288,1288,6608,,,,113573,92260
8555 Commerce Ave,San Diego,3,2,5,1,Design Institute of San Diego,32.731022,11,-117.149808,-2,1,8,3,CA,20460,20460,20460,,,,113582,92121
321 Golf Club Rd,Pleasant Hill,1,2,4,2,Diablo Valley College,37.968035,21,-122.069861,-2,1,8,4,CA,1288,1288,7028,,,,113634,94523
50 Acacia Ave,San Rafael,2,2,7,1,Dominican University of California,37.980014,13,-122.514654,-2,1,8,2,CA,40150,40150,40150,17400,17400,17400,113698,94901-2298
2301 Vine Street,Berkeley,2,2,7,1,Dominican School of Philosophy & Theology,37.881099,12,-122.264612,-2,1,8,2,CA,,,,15600,15600,15600,113704,94708-1816
1301 Avenida Cesar Chavez,Monterey Park,1,2,4,2,East Los Angeles College,34.039205,13,-118.148384,-2,1,8,4,CA,1219,1219,6159,,,,113856,91754-6099
16007 Crenshaw Blvd,Torrance,1,2,4,2,El Camino Community College District,33.885586,21,-118.326623,-2,1,8,4,CA,1104,1104,5184,,,,113980,90506
"1807 Wilshire Blvd, Ste #200",Santa Monica,3,2,9,1,Emperor's College of Traditional Oriental Medicine,34.0303,13,-118.4847,-2,1,8,3,CA,,,,12000,12000,12000,114114,90403
3095 Yerba Buena Rd,San Jose,1,2,3,2,Evergreen Valley College,37.301736,11,-121.766686,-2,1,8,4,CA,1288,1288,6860,,,,114266,95135-1598
919 S Grand Ave,Los Angeles,3,2,5,1,Fashion Institute of Design & Merchandising-Los Angeles,34.044209,11,-118.25993,-2,1,8,3,CA,27955,27955,27955,,,,114354,90015-1421
55 Stockton St,San Francisco,3,2,5,1,Fashion Institute of Design & Merchandising-San Francisco,37.786324,11,-122.406503,-2,1,8,3,CA,27955,27955,27955,,,,114390,94108-5805
17590 Gillette Avenue,Irvine,3,2,3,2,Fashion Institute of Design & Merchandising-Orange County,33.691963,12,-117.852254,-2,1,8,6,CA,27955,27955,27955,,,,114415,92614-5610
570 Golden Eagle Ave,Quincy,1,2,3,2,Feather River Community College District,39.952395,41,-120.970877,-2,1,8,4,CA,0,0,5550,,,,114433,95971-9124
2020 De La Vina St,Santa Barbara,2,2,9,1,Fielding Graduate University,34.4294,13,-119.717151,-2,1,8,2,CA,,,,13567,13567,13567,114549,93105-3538
200 7th Avenue,Santa Cruz,3,2,7,1,Five Branches University,36.964133,22,-121.998478,-2,1,8,3,CA,,,,14286,14286,14286,114585,95062
12345 El Monte Rd,Los Altos Hills,1,2,4,2,Foothill College,37.361104,21,-122.12833,-2,1,8,4,CA,1395,1395,7875,,,,114716,94022
1712 Euclid Ave,Berkeley,2,2,7,1,Franciscan School of Theology,37.877133,12,-122.260924,-2,1,8,2,CA,,,,12960,12960,12960,114734,94709-1208
1101 E. University Ave,Fresno,1,2,3,2,Fresno City College,36.767516,11,-119.795129,-2,1,8,4,CA,1104,1104,6744,,,,114789,93741
1717 S Chestnut Ave,Fresno,2,2,7,1,Fresno Pacific University,36.725279,11,-119.731953,-2,1,8,2,CA,25334,25334,25334,12690,12690,12690,114813,93702-4709
135 N Oakland Ave,Pasadena,2,2,9,1,Fuller Theological Seminary in California,34.14778,12,-118.140261,-2,1,8,2,CA,,,,17520,17520,17520,114840,91182
321 E Chapman Avenue,Fullerton,1,2,3,2,Fullerton College,33.876794,21,-117.916986,-2,1,8,4,CA,1104,1104,5976,,,,114859,92832-2095
5055 Santa Teresa Blvd,Gilroy,1,2,4,2,Gavilan College,36.973274,23,-121.568174,-2,1,8,4,CA,1196,1196,6604,,,,114938,95020
1500 N Verdugo Rd,Glendale,1,2,3,2,Glendale Community College,34.166422,12,-118.228251,-2,1,8,4,CA,1104,1104,5592,,,,115001,91208-2894
536 Mission Street,San Francisco,2,2,9,1,Golden Gate University-San Francisco,37.789208,11,-122.398785,-2,1,8,2,CA,14400,14400,14400,15660,15660,15660,115083,94105-2968
15744 Goldenwest St.,Huntington Beach,1,2,3,2,Golden West College,33.733775,21,-118.003036,-2,1,8,4,CA,1104,1104,5136,,,,115126,92647-2710
2400 Ridge Rd,Berkeley,2,2,9,1,Graduate Theological Union,37.87554,12,-122.261847,-2,1,8,2,CA,,,,17417,17417,17417,115214,94709
8800 Grossmont College Dr,El Cajon,1,2,4,2,Grossmont College,32.816077,21,-117.007292,-2,1,8,4,CA,1334,1334,6844,,,,115296,92020-1799
411 Central Avenue,Salinas,1,2,3,2,Hartnell College,36.673052,12,-121.668763,-2,1,8,4,CA,1104,1104,5400,,,,115393,93901
301 Platt Blvd.,Claremont,2,2,5,1,Harvey Mudd College,34.106137,21,-117.710594,-2,1,8,2,CA,46234,46234,46234,,,,115409,91711
2910 Prospect Park Dr,Rancho Cordova,3,2,3,2,Heald College-Rancho Cordova,38.594382,13,-121.280086,-2,1,8,6,CA,13500,13500,13500,,,,115454,95670
255 W Bullard,Fresno,3,2,3,2,Heald College-Fresno,36.822401,11,-119.795525,-2,1,8,6,CA,13500,13500,13500,,,,115472,93704
341 Great Mall Pky,Milpitas,3,2,3,2,Heald College-San Jose,37.410897,13,-121.893911,-2,1,8,6,CA,13500,13500,13500,,,,115490,95035-8008
875 Howard Street Suite 100,San Francisco,3,2,3,2,Heald College-San Francisco,37.781933,11,-122.404299,-2,1,8,6,CA,13500,13500,13500,,,,115515,94103
5130 Commercial Circle,Concord,3,2,3,2,Heald College-Concord,38.018938,21,-122.030047,-2,1,8,6,CA,13500,13500,13500,,,,115533,94520-0522
3500 Mountain Blvd,Oakland,2,2,8,1,Holy Names University,37.802654,11,-122.18717,-2,1,8,2,CA,32590,32590,32590,15588,15588,15588,115728,94619-1699
249 Lambert Rd,Carpinteria,3,2,9,1,Pacifica Graduate Institute,34.420464,41,-119.580264,-2,1,8,3,CA,,,,25450,25450,25450,115746,93013
1 Harpst Street,Arcata,1,2,7,1,Humboldt State University,40.8741,33,-124.0814,-2,1,8,1,CA,5472,5472,16632,6738,6738,17898,115755,95521-8299
6650 Inglewood Ave,Stockton,2,2,9,1,Humphreys College-Stockton and Modesto Campuses,38.011051,11,-121.316401,-2,1,8,2,CA,11700,11700,11700,11961,11961,11961,115773,95207-3896
380 E. Aten Road,Imperial,1,2,3,2,Imperial Valley College,32.827563,41,-115.503903,-2,1,8,4,CA,1288,1288,6888,,,,115861,92251-0158
1061 Camelback Rd,Newport Beach,3,2,7,1,Interior Designers Institute,33.641393,13,-117.865722,-2,1,8,3,CA,17950,17950,17950,19500,19500,19500,116226,92660
5500 Irvine Center Drive,Irvine,1,2,3,2,Irvine Valley College,33.675079,12,-117.778575,-2,1,8,4,CA,1415,1415,7577,,,,116439,92618-0301
"401 Mile of Cars Way, Suite 100",National City,3,2,5,1,ITT Technical Institute-National City,32.66165,21,-117.105941,-2,1,8,3,CA,17748,17748,17748,,,,116466,91950
650 W. Cienega Ave.,San Dimas,3,2,5,1,ITT Technical Institute-San Dimas,34.102405,21,-117.818401,-2,1,8,3,CA,17748,17748,17748,,,,116475,91773
"4000 W. Metropolitian Dr., Suite 100",Orange,3,2,5,1,ITT Technical Institute-Orange,33.78006,12,-117.896161,-2,1,8,3,CA,17748,17748,17748,,,,116484,92868
100 Ellinwood Way,Pleasant Hill,2,2,9,1,John F Kennedy University,37.881794,21,-122.183972,-2,1,8,2,CA,22320,22320,22320,22860,22860,22860,116712,94523-4817
15600 Mulholland Dr,Los Angeles,2,2,7,1,American Jewish University,34.128099,11,-118.471764,-2,1,8,2,CA,26784,26784,26784,26784,26784,26784,116846,90077-1519
995 N Reed Ave,Reedley,1,2,3,2,Reedley College,36.605968,32,-119.45993,-2,1,8,4,CA,1104,1104,6744,,,,117052,93654
1100 W. Covina Blvd.,San Dimas,2,2,7,1,Life Pacific College,34.089421,21,-117.830997,-2,1,8,2,CA,12000,12000,12000,7650,7650,7650,117104,91773-3298
7650 Mission Valley Road,San Diego,3,2,5,1,The Art Institute of California-Argosy University San Diego,32.778278,11,-117.155395,-2,1,8,3,CA,18648,18648,18648,,,,117113,92108-4423
1950 Third St,La Verne,2,2,9,1,University of La Verne,34.10086,21,-117.772634,-2,1,8,2,CA,35000,35000,35000,11190,11190,11190,117140,91750-4401
2222 Laguna Canyon Rd,Laguna Beach,2,2,7,1,Laguna College of Art and Design,33.561448,41,-117.772564,-2,1,8,2,CA,26500,26500,26500,29850,29850,29850,117168,92651
One College Drive,South Lake Tahoe,1,2,3,2,Lake Tahoe Community College,38.926864,41,-119.971631,-2,1,8,4,CA,1209,1209,6630,,,,117195,96150
900 Fallon Sreet,Oakland,1,2,3,2,Laney College,37.796205,11,-122.262434,-2,1,8,4,CA,1104,1104,6216,,,,117247,94607
Hwy 139,Susanville,1,2,3,2,Lassen Community College,40.431327,41,-120.631169,-2,1,8,4,CA,1104,1104,5880,,,,117274,96130
25001 Industrial Blvd,Hayward,2,2,9,1,Life Chiropractic College West,37.637639,12,-122.11627,-2,1,8,2,CA,,,,,,,117520,94545-2800
401 15th Street,Oakland,2,2,9,1,Lincoln University,37.804788,11,-122.269745,-2,1,8,2,CA,9360,9360,9360,7290,7290,7290,117557,94612-2801
2075 E. Madison Avenue,El Cajon,2,2,9,1,Southern California Seminary,32.803259,21,-116.900531,-2,1,8,2,CA,13320,13320,13320,9990,9990,9990,117575,92019-1108
4500 Riverwalk Parkway,Riverside,2,2,9,1,La Sierra University,33.908834,11,-117.497071,-2,1,8,2,CA,27972,27972,27972,26892,26892,26892,117627,92515-8247
11139 Anderson Street,Loma Linda,2,2,9,1,Loma Linda University,34.051518,21,-117.261056,-2,1,8,2,CA,28080,28080,28080,22880,22880,22880,117636,92350
4901 E. Carson St.,Long Beach,1,2,4,2,Long Beach City College,33.831741,11,-118.135819,-2,1,8,4,CA,1104,1104,6624,,,,117645,90808-1706
16200 East Amber Valley Drive,Whittier,2,2,9,1,Southern California University of Health Sciences,33.924638,21,-117.985447,-2,1,8,2,CA,,,,9500,9500,9500,117672,90604
1111 Figueroa Place,Wilmington,1,2,3,2,Los Angeles Harbor College,33.784201,11,-118.28186,-2,1,8,4,CA,1219,1219,6159,,,,117690,90744-2397
6201 Winnetka Ave,Woodland Hills,1,2,3,2,Los Angeles Pierce College,34.184184,11,-118.577194,-2,1,8,4,CA,1219,1219,6159,,,,117706,91371-0002
1600 W Imperial Hwy.,Los Angeles,1,2,3,2,Los Angeles Southwest College,33.929586,21,-118.304674,-2,1,8,4,CA,1219,1219,6159,,,,117715,90047-4899
400 W Washington Blvd,Los Angeles,1,2,3,2,Los Angeles Trade Technical College,34.032623,11,-118.269113,-2,1,8,4,CA,1219,1219,6159,,,,117724,90015-4181
5800 Fulton Avenue,Valley Glen,1,2,4,2,Los Angeles Valley College,34.176406,11,-118.421446,-2,1,8,4,CA,1219,1219,6159,,,,117733,91401-4096
21726 Placerita Canyon Road,Santa Clarita,2,2,9,1,The Master's College and Seminary,34.38214,21,-118.517422,-2,1,8,2,CA,28380,28380,28380,11040,11040,11040,117751,91321-1200
855 N Vermont Ave,Los Angeles,1,2,3,2,Los Angeles City College,34.087301,11,-118.292169,-2,1,8,4,CA,1219,1219,6159,,,,117788,90029
1237 N. Mission Rd.,Los Angeles,1,2,3,2,Los Angeles County College of Nursing and Allied Health,34.061605,11,-118.211418,-2,1,8,4,CA,,,,,,,117803,90033-1084
13356 Eldridge Avenue,Sylmar,1,2,3,2,Los Angeles Mission College,34.314944,11,-118.419087,-2,1,8,4,CA,1219,1219,6159,,,,117867,91342-3200
2700 East Leland Road,Pittsburg,1,2,3,2,Los Medanos College,38.005552,21,-121.861122,-2,1,8,4,CA,1288,1288,7028,,,,117894,94565
1170 Market St,San Francisco,3,2,7,1,The Art Institute of California-Argosy University San Francisco,37.803958,11,-122.417185,-2,1,8,3,CA,18648,18648,18648,21996,21996,21996,117928,94102-4908
One Lmu Drive,Los Angeles,2,2,9,1,Loyola Marymount University,33.970633,11,-118.415655,-2,1,8,2,CA,39344,39344,39344,15299,15299,15299,117946,90045-2659
835 College Ave,Kentfield,1,2,3,2,College of Marin,37.955014,21,-122.549936,-2,1,8,4,CA,1380,1380,7530,,,,118347,94904-2590
30800 Palos Verdes Drive East,Rancho Palos Verdes,2,2,7,1,Marymount California University,33.73463,21,-118.333404,-2,1,8,2,CA,29914,29914,29914,6750,6750,6750,118541,90275-6299
1000 Hensley Creek Road,Ukiah,1,2,3,2,Mendocino College,39.19119,41,-123.22903,-2,1,8,4,CA,1380,1380,7080,,,,118684,95482
1000 El Camino Real,Atherton,2,2,5,1,Menlo College,37.452906,21,-122.181444,-2,1,8,2,CA,36500,36500,36500,,,,118693,94027-4301
3600 M St,Merced,1,2,4,2,Merced College,37.335348,13,-120.476726,-2,1,8,4,CA,1104,1104,5856,,,,118718,95348-2898
12500 Campus Dr,Oakland,1,2,4,2,Merritt College,37.789088,11,-122.167335,-2,1,8,4,CA,1104,1104,6216,,,,118772,94619-3196
5000 MacArthur Blvd,Oakland,2,2,9,1,Mills College,37.782639,11,-122.18789,-2,1,8,2,CA,40210,40210,40210,29860,29860,29860,118888,94613
One Barnard Drive,Oceanside,1,2,3,2,MiraCosta College,33.191231,21,-117.302283,-2,1,8,4,CA,1104,1104,5544,,,,118912,92056-3899
3000 Mission College Blvd,Santa Clara,1,2,4,2,Mission College,37.391323,12,-121.982174,-2,1,8,4,CA,1104,1104,6000,,,,118930,95054-1897
435 College Ave,Modesto,1,2,3,2,Modesto Junior College,37.652042,12,-121.009723,-2,1,8,4,CA,1104,1104,6000,,,,118976,95350-5800
460 Pierce Street,Monterey,2,2,7,1,Monterey Institute of International Studies,36.599827,22,-121.896813,-2,1,8,2,CA,34970,34970,34970,34970,34970,34970,119058,93940
980 Fremont St,Monterey,1,2,4,2,Monterey Peninsula College,36.590826,22,-121.885774,-2,1,8,4,CA,1104,1104,5400,,,,119067,93940-4799
7075 Campus Rd,Moorpark,1,2,4,2,Moorpark College,34.300018,22,-118.836624,-2,1,8,4,CA,1338,1338,7000,,,,119137,93021-1695
1100 N Grand Ave,Walnut,1,2,4,2,Mt San Antonio College,34.043786,21,-117.8437,-2,1,8,4,CA,1288,1288,7364,,,,119164,91789-1399
12001 Chalon Rd,Los Angeles,2,2,9,1,Mount St Mary's College,34.082112,11,-118.480471,-2,1,8,2,CA,32882,32882,32882,9576,9576,9576,119173,90049-1599
1499 N. State St.,San Jacinto,1,2,3,2,Mt San Jacinto Community College District,33.807364,22,-116.970063,-2,1,8,4,CA,1380,1380,6930,,,,119216,92583-2399
"123 Camino de la Reina, #100 North",San Diego,3,2,2,3,Mueller College,32.76457,11,-117.163741,-2,1,8,9,CA,19152,19152,19152,,,,119234,92108-3002
6752 Hollywood Blvd.,Hollywood,3,2,5,1,Musicians Institute,34.101497,11,-118.337685,-2,1,8,3,CA,23985,23985,23985,,,,119270,90028
2277 Napa-Vallejo Hwy,Napa,1,2,3,2,Napa Valley College,38.27254,13,-122.272565,-2,1,8,4,CA,1104,1104,5904,,,,119331,94558-6236
18040 Sherman Way Ste 400,Reseda,3,2,3,2,Everest College-Reseda,34.200824,11,-118.526677,-2,1,8,6,CA,14364,14364,14364,,,,119359,91335-4631
3460 Wilshire Blvd Ste 500,Los Angeles,3,2,3,2,Everest College-LA Wilshire,34.061262,11,-118.299345,-2,1,8,6,CA,11206,11206,11206,,,,119368,90010
"217 E. Club Center Drive, Ste. A",San Bernardino,3,2,3,2,Everest College-San Bernardino,34.059754,12,-117.28222,-2,1,8,6,CA,13572,13572,13572,,,,119508,92408
14271 Story Rd,San Jose,3,2,7,1,The National Hispanic University,37.359057,11,-121.815921,-2,1,8,3,CA,7896,7896,7896,6426,6426,6426,119544,95127-3823
11255 North Torrey Pines Road,La Jolla,2,2,9,1,National University,32.909469,11,-117.244243,-2,1,8,2,CA,12096,12096,12096,10368,10368,10368,119605,92037-1011
1 University Circle,Monterey,1,2,9,1,Naval Postgraduate School,36.597159,22,-121.874248,-2,1,0,1,CA,,,,0,0,0,119678,93943
1249 F St,San Diego,3,2,7,1,Newschool of Architecture and Design,32.71331,11,-117.153305,-2,1,8,3,CA,24086,24086,24086,26100,26100,26100,119775,92101
47671 Westinghouse Drive,Fremont,2,2,9,1,Northwestern Polytechnic University,37.47857,21,-121.925457,-2,1,8,2,CA,7920,7920,7920,8100,8100,8100,120166,94539
1500 Ralston Ave,Belmont,2,2,7,1,Notre Dame de Namur University,37.517501,21,-122.284618,-2,1,8,2,CA,30806,30806,30806,14652,14652,14652,120184,94002-1908
1600 Campus Rd,Los Angeles,2,2,7,1,Occidental College,34.126224,11,-118.210783,-2,1,8,2,CA,45190,45190,45190,45190,45190,45190,120254,90041-3392
43600 Mission Blvd,Fremont,1,2,3,2,Ohlone College,37.527956,21,-121.914597,-2,1,8,4,CA,1104,1104,6336,,,,120290,94539-0390
2701 Fairview Road,Costa Mesa,1,2,4,2,Orange Coast College,33.670171,12,-117.911401,-2,1,8,4,CA,1104,1104,6240,,,,120342,92626
9045 Lincoln Blvd,Los Angeles,2,2,7,1,Otis College of Art and Design,33.956607,11,-118.416615,-2,1,8,2,CA,37380,37380,37380,38380,38380,38380,120403,90045-3505
4000 S Rose Ave,Oxnard,1,2,3,2,Oxnard College,34.164899,12,-119.15549,-2,1,8,4,CA,1338,1338,7000,,,,120421,93033-6699
2500 E Nutwood Ave,Fullerton,2,2,7,1,Hope International University,33.87616,21,-117.88573,-2,1,8,2,CA,25550,25550,25550,15417,15417,15417,120537,92831-3199
1791 Arastradero Rd,Palo Alto,2,2,9,1,Palo Alto University,37.383251,41,-122.186022,-2,1,8,2,CA,14994,14994,14994,39363,39363,39363,120698,94304-1337
2770 Marin Ave,Berkeley,2,2,8,1,Pacific Lutheran Theological Seminary,37.898172,12,-122.260201,-2,1,8,2,CA,,,,14445,14445,14445,120740,94708-1597
55 Eureka Street,Pasadena,2,2,8,1,Pacific Oaks College,34.153088,12,-118.15158,-2,1,8,2,CA,19872,19872,19872,17388,17388,17388,120768,91103
1798 Scenic Ave,Berkeley,2,2,9,1,Pacific School of Religion,37.876599,12,-122.263331,-2,1,8,2,CA,,,,16320,16320,16320,120795,94709
3450 Wilshire Blvd. Suite 500,Los Angeles,2,2,9,1,Pacific States University,34.0607,11,-118.299841,-2,1,8,2,CA,18740,18740,18740,18240,18240,18240,120838,90010
One Angwin Ave,Angwin,2,2,7,1,Pacific Union College,38.57409,41,-122.449639,-2,1,8,2,CA,26550,26550,26550,26550,26550,26550,120865,94508-9707
3601 Pacific Ave,Stockton,2,2,9,1,University of the Pacific,37.980624,11,-121.307296,-2,1,8,2,CA,39290,39290,39290,39290,39290,39290,120883,95211-0197
One College Drive,Blythe,1,2,3,2,Palo Verde College,33.661538,42,-114.651698,-2,1,8,4,CA,1288,1288,1288,,,,120953,92225
1140 W. Mission,San Marcos,1,2,3,2,Palomar College,33.15019,21,-117.181718,-2,1,8,4,CA,1288,1288,5432,,,,120971,92069-1487
1570 E Colorado Blvd.,Pasadena,1,2,4,2,Pasadena City College,34.144552,12,-118.118196,-2,1,8,4,CA,1104,1104,5784,,,,121044,91106-2003
24255 Pacific Coast Hwy,Malibu,2,2,9,1,Pepperdine University,34.041912,21,-118.707677,-2,1,8,2,CA,44650,44650,44650,33480,33480,33480,121150,90263
1050 North Mills Avenue,Claremont,2,2,5,1,Pitzer College,34.103408,21,-117.705939,-2,1,8,2,CA,44752,44752,44752,,,,121257,91711-6101
6250 El Cajon Blvd,San Diego,3,2,5,1,Platt College-San Diego,32.76373,11,-117.063483,-2,1,8,3,CA,25120,25120,25120,,,,121275,92115-3919
3900 Lomaland Dr,San Diego,2,2,8,1,Point Loma Nazarene University,32.713295,11,-117.251204,-2,1,8,2,CA,29750,29750,29750,10170,10170,10170,121309,92106-2899
550 N College Ave,Claremont,2,2,5,1,Pomona College,34.098298,21,-117.711944,-2,1,8,2,CA,43255,43255,43255,,,,121345,91711-6319
100 E College Ave,Porterville,1,2,3,2,Porterville College,36.049256,13,-119.014368,-2,1,8,4,CA,1288,1288,6608,,,,121363,93257
"19700 S. Vermont Avenue, Suite 100",Torrance,3,2,5,1,Westwood College-South Bay,33.85182,11,-118.289777,-2,1,8,3,CA,14871,14871,14871,,,,121381,90502
1530 W. 17th Street,Santa Ana,1,2,3,2,Santa Ana College,33.759203,11,-117.888384,-2,1,8,4,CA,1104,1104,5136,,,,121619,92706-3398
1776 Main St,Santa Monica,2,2,9,1,Pardee RAND Graduate School,34.009975,13,-118.49047,-2,1,8,2,CA,,,,19181,19181,19181,121628,90407-2138
1200 E. Colton Ave,Redlands,2,2,9,1,University of Redlands,34.063571,13,-117.163847,-2,1,8,2,CA,40990,40990,40990,17800,17800,17800,121691,92373-0999
7351 Tompkins Hill Rd,Eureka,1,2,4,2,College of the Redwoods,40.696744,41,-124.195075,-2,1,8,4,CA,1104,1104,1104,,,,121707,95501-9300
3600 Workman Mill Rd,Whittier,1,2,3,2,Rio Hondo College,34.019878,21,-118.033329,-2,1,8,4,CA,1104,1104,5664,,,,121886,90601-1616
4800 Magnolia Avenue,Riverside,1,2,3,2,Riverside City College,33.971481,11,-117.38054,-2,1,8,4,CA,1380,1380,7080,,,,121901,92506
1005 Atlantic Avenue,Alameda,3,2,9,1,Argosy University-San Francisco Bay Area,37.781238,21,-122.267523,-2,1,8,3,CA,13464,13464,13464,13158,13158,13158,121983,94501
440 Shatto Pl,Los Angeles,2,2,9,1,Dongguk University-Los Angeles,34.066226,11,-118.289927,-2,1,8,2,CA,6850,6850,6850,6850,6850,6850,122117,90020-1704
3835 Freeport Blvd,Sacramento,1,2,4,2,Sacramento City College,38.541883,11,-121.49166,-2,1,8,4,CA,0,0,6096,,,,122180,95822-1386
28000 Marguerite Pky,Mission Viejo,1,2,4,2,Saddleback College,33.551925,21,-117.664876,-2,1,8,4,CA,728,728,4660,,,,122205,92692-3635
320 Middlefield Rd,Menlo Park,2,2,7,1,Saint Patrick's Seminary and University,37.45886,21,-122.167951,-2,1,8,2,CA,17250,17250,17250,17250,17250,17250,122250,94025
3100 Telegraph Avenue,Oakland,2,2,9,1,Samuel Merritt University,37.819955,11,-122.266854,-2,1,8,2,CA,41330,41330,41330,40837,40837,40837,122296,94609
1313 Park Boulevard,San Diego,1,2,3,2,San Diego City College,32.718855,11,-117.151641,-2,1,8,4,CA,1104,1104,5664,,,,122339,92101-4787
"1950 Camino Vida Roble, Ste. 125",Carlsbad,3,2,3,2,Golf Academy of America-Carlsbad,33.12291,12,-117.283394,-2,1,8,6,CA,15270,15270,15270,,,,122366,92008
7250 Mesa College Dr,San Diego,1,2,4,2,San Diego Mesa College,32.804935,11,-117.169072,-2,1,8,4,CA,1104,1104,5644,,,,122375,92111-4998
10440 Black Mountain Rd,San Diego,1,2,4,2,San Diego Miramar College,32.909546,11,-117.120888,-2,1,8,4,CA,1104,1104,5664,,,,122384,92126-2999
5500 Campanile Dr,San Diego,1,2,9,1,San Diego State University,32.77525,11,-117.071228,-2,1,8,1,CA,5472,5472,16632,6738,6738,17898,122409,92182
5998 Alcala Park,San Diego,2,2,9,1,University of San Diego,32.77142,11,-117.188721,-2,1,8,2,CA,40900,40900,40900,23580,23580,23580,122436,92110-2492
800 Chestnut St,San Francisco,2,2,7,1,San Francisco Art Institute,37.803575,11,-122.417,-2,1,8,2,CA,37536,37536,37536,39520,39520,39520,122454,94133-2299
50 Oak Street,San Francisco,2,2,8,1,San Francisco Conservatory of Music,37.775322,11,-122.420143,-2,1,8,2,CA,38900,38900,38900,38900,38900,38900,122506,94102-6011
1600 Holloway Ave,San Francisco,1,2,9,1,San Francisco State University,37.721345,11,-122.477905,-2,1,8,1,CA,5472,5472,16632,6738,6738,17898,122597,94132
105 Seminary Road,San Anselmo,2,2,9,1,San Francisco Theological Seminary,37.969594,21,-122.564302,-2,1,8,2,CA,,,,12000,12000,12000,122603,94960-0000
2130 Fulton St,San Francisco,2,2,9,1,University of San Francisco,37.775564,11,-122.450977,-2,1,8,2,CA,39840,39840,39840,21150,21150,21150,122612,94117-1080
901 Fifth St,Clovis,2,2,9,1,San Joaquin College of Law,36.823978,21,-119.6978,-2,1,8,2,CA,,,,,,,122649,93612-1312
5151 Pacific Ave,Stockton,1,2,4,2,San Joaquin Delta College,37.994643,11,-121.317226,-2,1,8,4,CA,1104,1104,6432,,,,122658,95207
8344 W Mineral King Ave,Visalia,3,2,3,2,San Joaquin Valley College-Visalia,36.328049,41,-119.384981,-2,1,8,6,CA,16606,16606,16606,,,,122685,93291-9283
201 New Stine Rd.,Bakersfield,3,2,3,2,San Joaquin Valley College-Bakersfield,35.35275,11,-119.062251,-2,1,8,6,CA,16492,16492,16492,,,,122694,93309
333 Sunset Blvd.,Rocklin,2,2,7,1,William Jessup University,38.819728,41,-121.292312,-2,1,8,2,CA,22520,22520,22520,9900,9900,9900,122728,95765-3707
2100 Moorpark Ave,San Jose,1,2,3,2,San Jose City College,37.316293,11,-121.929747,-2,1,8,4,CA,1288,1288,6860,,,,122746,95128-2798
1 Washington Sq,San Jose,1,2,7,1,San Jose State University,37.335201,11,-121.881214,-2,1,8,1,CA,5472,5472,16632,6738,6738,17898,122755,95192-0001
1700 W Hillsdale Blvd,San Mateo,1,2,3,2,College of San Mateo,37.534357,21,-122.336078,-2,1,8,4,CA,1344,1344,5936,,,,122791,94402-3784
5300 California Avenue,Bakersfield,3,2,5,1,Santa Barbara Business College-Bakersfield,35.359544,11,-119.061264,-2,1,8,3,CA,12348,12348,12348,,,,122834,93309
3250 Wilshire Blvd Ste 400,Los Angeles,3,2,7,1,Westwood College-Los Angeles,34.061397,11,-118.293292,-2,1,8,3,CA,14832,14832,14832,11976,11976,11976,122843,90010
303 E Plaza Dr Ste 1,Santa Maria,3,2,5,1,Santa Barbara Business College-Santa Maria,34.403862,13,-119.699744,-2,1,8,3,CA,12348,12348,12348,,,,122852,93454
721 Cliff Drive,Santa Barbara,1,2,4,2,Santa Barbara City College,34.406788,13,-119.698045,-2,1,8,4,CA,1380,1380,7168,,,,122889,93109-2394
500 El Camino Real,Santa Clara,2,2,9,1,Santa Clara University,37.352706,12,-121.938189,-2,1,8,2,CA,42156,42156,42156,24705,24705,24705,122931,95053
1900 Pico Blvd,Santa Monica,1,2,3,2,Santa Monica College,34.018968,13,-118.470431,-2,1,8,4,CA,1104,1104,7560,,,,122977,90405-1628
1501 Mendocino Avenue,Santa Rosa,1,2,4,2,Santa Rosa Junior College,38.45416,12,-122.720689,-2,1,8,4,CA,1242,1242,6561,,,,123013,95401-4395
747 Front Street 3rd Fl.,San Francisco,2,2,9,1,Saybrook University,37.798417,11,-122.400088,-2,1,8,2,CA,,,,22560,22560,22560,123095,94111-1920
1030 North Columbia Avenue,Claremont,2,2,6,1,Scripps College,34.103655,21,-117.711336,-2,1,8,2,CA,45350,45350,45350,32866,32866,32866,123165,91711-3905
915 S Mooney Blvd,Visalia,1,2,3,2,College of the Sequoias,36.322957,12,-119.314775,-2,1,8,4,CA,1288,1288,5848,,,,123217,93277-2214
2951 Goodwater Ave.,Redding,2,2,7,1,Shasta Bible College and Graduate School,40.564208,13,-122.315742,-2,1,8,2,CA,9600,9600,9600,4950,4950,4950,123280,96002
11555 Old Oregon Trail,Redding,1,2,3,2,Shasta College,40.625731,22,-122.317982,-2,1,8,4,CA,1104,1104,6144,,,,123299,96003
5000 Rocklin Road,Rocklin,1,2,3,2,Sierra College,38.792758,21,-121.212646,-2,1,8,4,CA,1104,1104,6144,,,,123341,95677-3397
4747 N First St Bldg D,Fresno,3,2,4,2,Sierra Valley College of Court Reporting,36.802756,11,-119.773017,-2,1,8,6,CA,11000,11000,11000,,,,123396,93726
2200 N Grand Ave,Santa Ana,2,2,9,1,Trinity Law School,33.766071,11,-117.852059,-2,1,8,2,CA,,,,,,,123448,92705
2211 College View Drive,Redding,2,2,7,1,Simpson University,40.61331,13,-122.333048,-2,1,8,2,CA,23300,23300,23300,12400,12400,12400,123457,96003-8606
800 College Ave,Weed,1,2,3,2,College of the Siskiyous,41.413848,33,-122.389166,-2,1,8,4,CA,1104,1104,5520,,,,123484,96094-2899
3300 College Dr,San Bruno,1,2,3,2,Skyline College,37.630543,21,-122.465978,-2,1,8,4,CA,1380,1380,1380,,,,123509,94066-1698
701 South Mount Vernon Avenue,San Bernardino,1,2,4,2,San Bernardino Valley College,34.088717,12,-117.313814,-2,1,8,4,CA,0,0,0,,,,123527,92410-2798
1928 Saint Marys Road,Moraga,2,2,9,1,Saint Mary's College of California,37.83997,41,-122.106795,-2,1,8,2,CA,39740,39740,39740,32954,32954,32954,123554,94575
4000 Suisun Valley Rd,Fairfield,1,2,4,2,Solano Community College,38.235513,22,-122.120232,-2,1,8,4,CA,1380,1380,7350,,,,123563,94534-3197
1801 E Cotati Ave,Rohnert Park,1,2,7,1,Sonoma State University,38.341023,21,-122.673261,-2,1,8,1,CA,5472,5472,16632,6738,6738,17898,123572,94928-3609
1126 N Brookhurst St,Anaheim,2,2,9,1,South Baylo University,33.847936,11,-117.958663,-2,1,8,2,CA,7650,7650,7650,7880,7880,7880,123633,92801-1701
55 Fair Dr,Costa Mesa,2,2,7,1,Vanguard University of Southern California,33.662686,12,-117.900911,-2,1,8,2,CA,29250,29250,29250,10008,10008,10008,123651,92626
900 Otay Lakes Rd,Chula Vista,1,2,4,2,Southwestern College,32.641567,21,-116.997215,-2,1,8,4,CA,1288,1288,5320,,,,123800,91910-7299
5012 Seminary Rd,Camarillo,2,2,7,1,St John's Seminary,34.244034,41,-119.001395,-2,1,8,2,CA,,,,16500,16500,16500,123855,93012-2500
2441 Le Conte AVE,Berkeley,2,2,7,1,Starr King School for Ministry,37.876939,12,-122.261778,-2,1,8,2,CA,,,,20058,20058,20058,123916,94709-1209
2575 Yorba Linda Blvd,Fullerton,2,2,9,1,Marshall B Ketchum University,33.889819,21,-117.886158,-2,1,8,2,CA,,,,34080,34080,34080,123943,92831-1699
960 E. 3rd Street,Los Angeles,2,2,7,1,Southern California Institute of Architecture,34.04365,11,-118.232703,-2,1,8,2,CA,36600,36600,36600,36600,36600,36600,123952,90013-1822
University Park,Los Angeles,2,2,9,1,University of Southern California,34.021058,11,-118.283858,-2,1,8,2,CA,45602,45602,45602,36864,36864,36864,123961,90089
3050 Wilshire Boulevard,Los Angeles,2,2,9,1,Southwestern Law School,34.061558,11,-118.288375,-2,1,8,2,CA,,,,46867,46867,46867,123970,90010-1106
29 Cougar Court,Taft,1,2,4,2,Taft College,35.149343,32,-119.459751,-2,1,8,4,CA,1380,1380,7080,,,,124113,93268
1325 N College Ave,Claremont,2,2,9,1,Claremont School of Theology,34.107602,21,-117.715256,-2,1,8,2,CA,,,,16800,16800,16800,124283,91711-3199
"10,000 Ojai Rd",Santa Paula,2,2,5,1,Thomas Aquinas College,34.429009,42,-119.087141,-2,1,8,2,CA,24500,24500,24500,,,,124292,93060
4330 Auburn Boulevard,Sacramento,2,2,5,1,Epic Bible College,38.64491,21,-121.362311,-2,1,8,2,CA,8964,8964,8964,,,,124487,95841
4667 Telegraph Rd,Ventura,1,2,4,2,Ventura College,34.277035,12,-119.230659,-2,1,8,4,CA,1338,1338,7000,,,,125028,93003-3872
4475 Market St,Ventura,2,2,9,1,The Santa Barbara and Ventura Colleges of Law-Ventura,34.257282,12,-119.233149,-2,1,8,2,CA,,,,,,,125037,93003
18422 Bear Valley Rd,Victorville,1,2,4,2,Victor Valley College,34.472231,12,-117.261456,-2,1,8,4,CA,1104,1104,4296,,,,125091,92395-5850
2050 Center Sreet,Berkeley,1,2,4,2,Berkeley City College,37.87047,12,-122.269793,-2,1,8,4,CA,1104,1104,6216,,,,125170,94704
"100 Washington Avenue South, Suite 900",Minneapolis,3,2,9,1,Walden University,44.98137,11,-93.265731,-2,1,4,3,MN,11130,11130,11130,11814,11814,11814,125231,55401
300 Cherry Lane,Coalinga,1,2,3,2,West Hills College-Coalinga,36.147891,32,-120.356747,-2,1,8,4,CA,1380,1380,9000,,,,125462,93210
9000 Overland Avenue,Culver City,1,2,3,2,West Los Angeles College,34.005578,21,-118.387578,-2,1,8,4,CA,1219,1219,6159,,,,125471,90230-3519
14000 Fruitvale Ave,Saratoga,1,2,4,2,West Valley College,37.263133,21,-122.009701,-2,1,8,4,CA,1104,1104,6000,,,,125499,95070-5698
1725 Bear Valley Parkway,Escondido,2,2,7,1,Westminster Theological Seminary in California,33.121447,21,-117.046371,-2,1,8,2,CA,,,,13825,13825,13825,125718,92027
955 La Paz Rd,Santa Barbara,2,2,6,1,Westmont College,34.449265,22,-119.661932,-2,1,8,2,CA,37500,37500,37500,37500,37500,37500,125727,93108-1089
13406 E Philadelphia Street,Whittier,2,2,9,1,Whittier College,33.977625,21,-118.028402,-2,1,8,2,CA,39736,39736,39736,11340,11340,11340,125763,90601
7500 Glenoaks Blvd,Burbank,2,2,7,1,Woodbury University,34.209226,11,-118.340692,-2,1,8,2,CA,32760,32760,32760,18486,18486,18486,125897,91510-7846
2728 Durant Ave,Berkeley,2,2,9,1,The Wright Institute,37.868221,12,-122.253168,-2,1,8,2,CA,,,,29850,29850,29850,126012,94704-1796
1111 N State College Blvd,Fullerton,3,2,9,1,Western State College of Law at Argosy University,33.880672,21,-117.890274,-2,1,8,3,CA,,,,,,,126030,92831-3014
1155 Island Avenue,San Diego,2,2,9,1,Thomas Jefferson School of Law,32.71013,11,-117.154191,-2,1,8,2,CA,,,,8850,8850,8850,126049,92101
7215 Waring Ave,Los Angeles,2,2,5,1,Yeshiva Ohr Elchonon Chabad West Coast Talmudical Seminary,34.085494,11,-118.346688,-2,1,8,2,CA,12600,12600,12600,,,,126076,90046
2088 N Beale Rd,Marysville,1,2,3,2,Yuba College,39.125995,22,-121.539316,-2,1,8,4,CA,1124,1124,6164,,,,126119,95901
208 Edgemont Blvd,Alamosa,1,2,7,1,Adams State University,37.477238,33,-105.880943,-2,1,7,1,CO,4872,4872,15504,4176,4176,10062,126182,81101
5401 W. 20th St.,Greeley,1,2,3,2,Aims Community College,40.409037,13,-104.764335,-2,1,7,4,CO,1617,2538,10206,,,,126207,80632
5900 S. Santa Fe Dr.,Littleton,1,2,3,2,Arapahoe Community College,39.607505,21,-105.018631,-2,1,7,4,CO,2868,2868,11766,,,,126289,80160-9002
1681 S Dayton St,Denver,3,2,3,2,Bel-Rea Institute of Animal Technology,39.686066,11,-104.875292,-2,1,7,6,CO,10800,10800,10800,,,,126359,80247
1815 Jet Wing Drive,Colorado Springs,3,2,3,2,Everest College-Colorado Springs,38.807095,11,-104.740267,-2,1,7,6,CO,14040,14040,14040,,,,126401,80916
"1380 Lawrence Street, Lawrence Street Center, Suite 1400",Denver,1,2,9,1,University of Colorado Denver,39.74603,11,-104.999181,-2,1,7,1,CO,6768,6768,20892,6462,6462,20160,126562,80217-3364
1420 Austin Bluffs Parkway,Colorado Springs,1,2,9,1,University of Colorado Colorado Springs,38.892735,11,-104.800296,-2,1,7,1,CO,5976,5976,17389,9368,9368,18098,126580,80918
10851 W 120th Ave,Broomfield,3,2,3,2,Redstone College,39.914822,13,-105.119096,-2,1,7,6,CO,14654,14654,14654,,,,126605,80021-3465
Regent Drive at Broadway,Boulder,1,2,9,1,University of Colorado Boulder,40.004415,13,-105.267061,-2,1,7,1,CO,8760,8760,30528,9918,9918,26712,126614,80309-0017
8787 West Alameda Avenue,Lakewood,2,2,7,1,Colorado Christian University,39.711701,12,-105.094836,-2,1,7,2,CO,18810,18810,18810,13596,13596,13596,126669,80226
14. E Cache La Poudre St.,Colorado Springs,2,2,7,1,Colorado College,38.84657,11,-104.82422,-2,1,7,2,CO,43812,43812,43812,31340,31340,31340,126678,80903
1200 Lincoln Street,Denver,3,2,5,1,The Art Institute of Colorado,39.735587,11,-104.985847,-2,1,7,3,CO,17532,17532,17532,,,,126702,80203-2983
802 Grand Ave.,Glenwood Springs,1,2,5,1,Colorado Mountain College,39.54636,33,-107.324391,-2,1,7,1,CO,2265,4425,10560,,,,126711,81601-0233
500 Kennedy Drive,Rangely,1,2,3,2,Colorado Northwestern Community College,40.080745,43,-108.790296,-2,1,7,4,CO,2868,2868,5363,,,,126748,81648-3598
1500 Illinois St,Golden,1,2,9,1,Colorado School of Mines,39.75079,21,-105.227148,-2,1,7,1,CO,14400,14400,30330,14400,14400,30330,126775,80401
102 Administration Building,Fort Collins,1,2,9,1,Colorado State University-Fort Collins,40.574759,12,-105.08083,-2,1,7,1,CO,7494,7494,23347,8811,8811,21600,126818,80523-0100
4435 N Chestnut Street,Colorado Springs,3,2,9,1,Colorado Technical University-Colorado Springs,38.894265,11,-104.833928,-2,1,7,3,CO,10980,10980,10980,13097,13097,13097,126827,80907-3812
16000 E CentreTech Pky,Aurora,1,2,3,2,Community College of Aurora,39.717767,11,-104.801861,-2,1,7,4,CO,2706,2706,11101,,,,126863,80011-9036
"1385 S Colorado Blvd., 5th Floor",Denver,2,2,5,1,College America-Denver,39.691571,11,-104.94118,-2,1,7,2,CO,17211,17211,17211,,,,126872,80222
"9051 Harlan Street, Unit 20",Westminster,3,2,3,2,Prince Institute-Rocky Mountains,39.859891,21,-105.065051,-2,1,7,6,CO,8800,8800,8800,,,,126924,80031-2901
1111 W. Colfax Ave.,Denver,1,2,3,2,Community College of Denver,39.74142,11,-105.003007,-2,1,7,4,CO,2868,2868,11767,,,,126942,80204-2026
6399 S. Santa Fe Drive,Littleton,2,2,9,1,Denver Seminary,39.600595,21,-105.022363,-2,1,7,2,CO,,,,15900,15900,15900,126979,80120
7350 N Broadway,Denver,3,2,5,1,Westwood College-Denver North,39.830429,21,-104.986386,-2,1,7,3,CO,14913,14913,14913,,,,127024,80221
2199 S. University Blvd,Denver,2,2,9,1,University of Denver,39.695954,11,-104.964625,-2,1,7,2,CO,39744,39744,39744,39744,39744,39744,127060,80208
1000 Rim Drive,Durango,1,2,7,1,Fort Lewis College,37.275428,33,-107.867003,-2,1,7,1,CO,5232,5232,16072,,,,127185,81301-3999
3645 W 112th Ave,Westminster,1,2,3,2,Front Range Community College,39.901757,21,-105.039359,-2,1,7,4,CO,2868,2868,11767,,,,127200,80031
2201 S University Blvd,Denver,2,2,9,1,Iliff School of Theology,39.677461,11,-104.960647,-2,1,7,2,CO,,,,17976,17976,17976,127273,80210-4798
2401 S Main St,Lamar,1,2,3,2,Lamar Community College,38.058067,33,-102.615612,-2,1,7,4,CO,2868,2868,5363,,,,127389,81052-3999
1100 North Avenue,Grand Junction,1,2,9,1,Colorado Mesa University,39.076354,13,-108.540281,-2,1,7,1,CO,6008,6008,16031,6091,6091,17485,127556,81501-3122
Speer Blvd and Colfax Ave,Denver,1,2,7,1,Metropolitan State University of Denver,39.742248,11,-105.002391,-2,1,7,1,CO,4691,4691,16784,5459,5459,13586,127565,80217-3362
920 Barlow Road,Fort  Morgan,1,2,3,2,Morgan Community College,40.258792,33,-103.771822,-2,1,7,4,CO,2868,2868,11767,,,,127617,80701
2130 Arapahoe Ave,Boulder,2,2,7,1,Naropa University,40.014816,13,-105.267073,-2,1,7,2,CO,28610,28610,28610,20592,20592,20592,127653,80302-6697
"1915 Jamboree Drive,  Suite 185",Colorado Springs,3,2,5,1,National American University-Colorado Springs,38.95208,11,-104.790571,-2,1,7,3,CO,12096,12096,12096,,,,127680,80920
"1325 S. Colorado Boulevard, Suite 100",Denver,3,2,5,1,National American University-Denver,39.691953,11,-104.941649,-2,1,7,3,CO,12096,12096,12096,,,,127699,80222-3308
1111 Academy Park Loop,Colorado Springs,2,2,5,1,Nazarene Bible College,38.814124,11,-104.751124,-2,1,7,2,CO,10050,10050,10050,,,,127714,80910-3704
100 College Avenue,Sterling,1,2,3,2,Northeastern Junior College,40.636879,33,-103.197536,-2,1,7,4,CO,2868,2868,9412,,,,127732,80751-2944
Carter Hall - Rm 4000,Greeley,1,2,9,1,University of Northern Colorado,40.403178,13,-104.701721,-2,1,7,1,CO,5548,5548,16892,8735,8735,17379,127741,80639
1802 Colorado Ave,La Junta,1,2,3,2,Otero Junior College,37.971184,33,-103.544779,-2,1,7,4,CO,3585,3585,6704,,,,127778,81050
9065 Grant St,Thornton,3,2,3,2,Everest College-Thornton,39.86156,21,-104.985441,-2,1,7,6,CO,15660,15660,15660,,,,127787,80229
5675 S Academy Blvd,Colorado Springs,1,2,3,2,Pikes Peak Community College,38.764287,21,-104.787261,-2,1,7,4,CO,2868,2868,11767,,,,127820,80906-5498
900 West Orman Avenue,Pueblo,1,2,3,2,Pueblo Community College,38.263458,12,-104.636396,-2,1,7,4,CO,2921,2921,11767,,,,127884,81004-1499
13300 W Sixth Ave,Lakewood,1,2,3,2,Red Rocks Community College,39.720277,12,-105.150094,-2,1,7,4,CO,2868,2868,11767,,,,127909,80228-1255
3333 Regis Blvd,Denver,2,2,9,1,Regis University,39.78976,11,-105.031385,-2,1,7,2,CO,31824,31824,31824,10890,10890,10890,127918,80221-1099
1600 Pierce St,Lakewood,3,2,7,1,Rocky Mountain College of Art and Design,39.74332,12,-105.069911,-2,1,7,3,CO,21720,21720,21720,20376,20376,20376,127945,80214
2200 Bonforte Blvd,Pueblo,1,2,7,1,Colorado State University-Pueblo,38.309219,12,-104.579846,-2,1,7,1,CO,5494,5494,15816,4230,4230,12575,128106,81001-4901
500 Airport Blvd,Aurora,1,2,2,3,Pickens Technical College,39.723527,11,-104.78998,-2,1,7,7,CO,2280,2280,4560,,,,128151,80011-9307
600 Prospect St,Trinidad,1,2,4,2,Trinidad State Junior College,37.172939,33,-104.512184,-2,1,7,4,CO,2868,2868,5362,,,,128258,81082
"2304 Cadet Drive, Suite 3800",USAFA,1,2,5,1,United States Air Force Academy,39.011115,41,-104.889893,-2,1,0,1,CO,0,0,0,,,,128328,80840-5002
600 N Adams,Gunnison,1,2,7,1,Western State Colorado University,38.547421,33,-106.91971,-2,1,7,1,CO,5275,5275,15216,13500,13500,13500,128391,81231
1555 Stuart St,Denver,2,2,9,1,Yeshiva Toras Chaim Talmudical Seminary,39.741781,11,-105.043282,-2,1,7,2,CO,8200,8200,8200,8200,8200,8200,128425,80204
700 Prospect St,New Haven,2,2,7,1,Albertus Magnus College,41.332519,12,-72.923848,-2,1,1,2,CT,27888,27888,27888,18264,18264,18264,128498,06511-1189
170 Elm St,Enfield,1,2,3,2,Asnuntuck Community College,41.998409,21,-72.570177,-2,1,1,4,CT,3360,3360,10080,,,,128577,6082
132 Prospect St,Stamford,2,2,2,3,Bais Binyomin Academy,41.059922,12,-73.534604,-2,1,1,8,CT,6100,6100,6100,,,,128586,6901
2279 Mount Vernon Road,Southington,3,2,5,1,Lincoln College of New England-Southington,41.632345,21,-72.920217,-2,1,1,3,CT,18780,18780,18780,,,,128683,06489-1057
200 Mill Hill Ave,Bridgeport,2,2,2,3,Bridgeport Hospital School of Nursing,41.189413,12,-73.165185,-2,1,1,8,CT,10200,10200,10200,,,,128726,6610
126 Park Avenue,Bridgeport,2,2,9,1,University of Bridgeport,41.165587,12,-73.189352,-2,1,1,2,CT,27150,27150,27150,13590,13590,13590,128744,06604-5620
1615 Stanley St,New Britain,1,2,9,1,Central Connecticut State University,41.690258,21,-72.770094,-2,1,1,1,CT,4510,4510,14594,5617,5617,15650,128771,6050
55 Paul Manafort Drive,New Britain,1,2,5,1,Charter Oak State College,41.688246,21,-72.767972,-2,1,1,1,CT,6192,6192,8136,,,,128780,6053
270 Mohegan Avenue,New London,2,2,7,1,Connecticut College,41.379833,13,-72.107321,-2,1,1,2,CT,45765,45765,45765,11700,11700,11700,128902,06320-4196
221 W Main St,Branford,3,2,2,3,Porter and Chester Institute of Branford,41.277311,21,-72.854898,-2,1,1,9,CT,17210,17210,17210,,,,129002,6405
352 Mansfield Road,Storrs,1,2,9,1,University of Connecticut,41.808205,21,-72.249519,-2,1,1,1,CT,9256,9256,28204,11456,11456,29740,129020,6269
One Riverside Drive,East Hartford,2,2,5,1,Goodwin College,41.74405,13,-72.6403,-2,1,1,2,CT,18900,18900,18900,,,,129154,6118
83 Windham St,Willimantic,1,2,7,1,Eastern Connecticut State University,41.721673,31,-72.218753,-2,1,1,1,CT,4510,4510,14594,5617,5617,15650,129215,6226
1073 N Benson Rd,Fairfield,2,2,9,1,Fairfield University,41.160732,21,-73.25778,-2,1,1,2,CT,42320,42320,42320,15750,15750,15750,129242,06824-5195
950 Main Street,Hartford,1,2,3,2,Capital Community College,41.768397,12,-72.672734,-2,1,1,4,CT,3360,3360,10080,,,,129367,6103
275 Windsor St,Hartford,2,2,7,1,Rensselaer Hartford Graduate Center Inc,41.773462,12,-72.673916,-2,1,1,2,CT,,,,37080,37080,37080,129428,6120
77 Sherman Street,Hartford,2,2,9,1,Hartford Seminary,41.769861,12,-72.707766,-2,1,1,2,CT,,,,11700,11700,11700,129491,06105-2260
200 Bloomfield Ave,West Hartford,2,2,9,1,University of Hartford,41.796485,12,-72.714965,-2,1,1,2,CT,31804,31804,31804,13100,13100,13100,129525,06117-1599
33 Prospect Hill Road,Cromwell,2,2,8,1,Holy Apostles College and Seminary,41.60682,21,-72.647853,-2,1,1,2,CT,10400,10400,10400,5850,5850,5850,129534,06416-2005
900 Lafayette Blvd,Bridgeport,1,2,3,2,Housatonic Community College,41.175228,12,-73.191003,-2,1,1,4,CT,3360,3360,10080,,,,129543,06604-4704
"270 Farmington Ave, Suite 245",Farmington,3,2,3,2,Sanford-Brown College-Farmington,41.73539,21,-72.795559,-2,1,1,6,CT,15154,15154,15154,,,,129613,6032
84 Lyme St,Old Lyme,2,2,6,1,Lyme Academy College of Fine Arts,41.322826,22,-72.329397,-2,1,1,2,CT,27984,27984,27984,27984,27984,27984,129686,6371
Great Path,Manchester,1,2,3,2,Manchester Community College,41.760484,21,-72.562577,-2,1,1,4,CT,3360,3360,10080,,,,129695,6040
750 Chase Parkway,Waterbury,1,2,3,2,Naugatuck Valley Community College,41.549564,22,-73.071209,-2,1,1,4,CT,3360,3360,3360,,,,129729,06708-3089
100 Training Hill Rd,Middletown,1,2,3,2,Middlesex Community College,41.539516,13,-72.611838,-2,1,1,4,CT,3360,3360,10080,,,,129756,06457-4829
437 Pequot Avenue,New London,2,2,5,1,Mitchell College,41.328075,13,-72.095337,-2,1,1,2,CT,27718,27718,27718,,,,129774,6320
574 New London Turnpike,Norwich,1,2,3,2,Three Rivers Community College,41.509945,13,-72.103039,-2,1,1,4,CT,3786,3786,11318,,,,129808,6360
300 Boston Post Road,West Haven,2,2,9,1,University of New Haven,41.291314,21,-72.961472,-2,1,1,2,CT,32440,32440,32440,21600,21600,21600,129941,6516
188 Richards Avenue,Norwalk,1,2,3,2,Norwalk Community College,41.102574,13,-73.450965,-2,1,1,4,CT,3360,3360,10080,,,,130004,6854
Park Pl E,Winsted,1,2,3,2,Northwestern Connecticut Community College,41.920982,31,-73.059291,-2,1,1,4,CT,3360,3360,10080,,,,130040,6098
20 Gorham Ave,Hamden,3,2,5,1,Paier College of Art Inc,41.347714,21,-72.935048,-2,1,1,3,CT,12600,12600,12600,,,,130110,06514-3902
670 Lordship Blvd,Stratford,3,2,2,3,Porter and Chester Institute of Stratford,41.169646,13,-73.149023,-2,1,1,9,CT,17210,17210,17210,,,,130174,06615-7158
800 Country Club Rd,Waterbury,3,2,7,1,Post University,41.535334,22,-73.080525,-2,1,1,3,CT,16450,16450,16450,7390,7390,7390,130183,6723
742 Upper Maple St,Danielson,1,2,3,2,Quinebaug Valley Community College,41.82623,21,-71.889673,-2,1,1,4,CT,3360,3360,10080,,,,130217,06239-1436
Mt Carmel Ave,Hamden,2,2,9,1,Quinnipiac University,41.419527,21,-72.895542,-2,1,1,2,CT,37830,37830,37830,16110,16110,16110,130226,6518
5151 Park Ave,Fairfield,2,2,9,1,Sacred Heart University,41.221548,21,-73.24461,-2,1,1,2,CT,34800,34800,34800,22775,22775,22775,130253,06825-1000
1678 Asylum Avenue,West Hartford,2,2,9,1,University of Saint Joseph,41.783028,13,-72.730489,-2,1,1,2,CT,31928,31928,31928,16392,16392,16392,130314,6117
20 Church Street,New Haven,1,2,3,2,Gateway Community College,41.30449,12,-72.927501,-2,1,1,4,CT,3360,3360,10080,,,,130396,6510
2800 Main St,Bridgeport,2,2,5,1,St Vincent's College,41.201198,12,-73.201106,-2,1,1,2,CT,19350,19350,19350,,,,130448,06606-4201
501 Crescent Street,New Haven,1,2,9,1,Southern Connecticut State University,41.331852,12,-72.948806,-2,1,1,1,CT,4510,4510,14594,5617,5617,14594,130493,06515-1355
80 Eighth Ave Rm 400,New York,3,2,7,1,Tri-State College of Acupuncture,40.739862,11,-74.002085,-2,1,2,3,NY,,,,21800,21800,21800,130581,10011
300 Summit St,Hartford,2,2,7,1,Trinity College,41.746746,12,-72.688684,-2,1,1,2,CT,45300,45300,45300,11300,11300,11300,130590,06106-3100
271 Scott Swamp Road,Farmington,1,2,3,2,Tunxis Community College,41.705498,21,-72.87754,-2,1,1,4,CT,3360,3360,10080,,,,130606,06032-3187
15 Mohegan Avenue,New London,1,2,5,1,United States Coast Guard Academy,41.370261,13,-72.098839,-2,1,0,1,CT,0,0,0,,,,130624,06320-4195
237 High St,Middletown,2,2,9,1,Wesleyan University,41.55678,13,-72.656755,-2,1,1,2,CT,46674,46674,46674,46674,46674,46674,130697,6459
181 White Street,Danbury,1,2,9,1,Western Connecticut State University,41.400365,13,-73.444264,-2,1,1,1,CT,4510,4510,14594,5617,5617,15650,130776,06810-6826
20 York St EPB 806,New Haven,2,2,6,1,Yale-New Haven Hospital Dietetic Internship,41.304214,12,-72.935579,-2,1,1,2,CT,,,,1800,1800,1800,130785,6510
Woodbridge Hall,New Haven,2,2,9,1,Yale University,41.311158,12,-72.926688,-2,1,1,2,CT,44000,44000,44000,36500,36500,36500,130794,6520
424 Savannah Rd,Lewes,2,2,4,2,Beebe Medical Center Margaret H Rollins School of Nursing,38.771265,32,-75.142425,-2,1,2,5,DE,5000,5000,5000,,,,130837,19958
"Route 18, Seashore Highway PO Box 610",Georgetown,1,2,3,2,Delaware Technical Community College-Owens,38.697344,31,-75.40752,-2,1,2,4,DE,3018,3018,7548,,,,130891,19947
100 Campus Drive,Dover,1,2,3,2,Delaware Technical Community College-Terry,39.198371,13,-75.56012,-2,1,2,4,DE,3018,3018,7548,,,,130907,19901
333 N. Shipley Street,Wilmington,1,2,3,2,Delaware Technical Community College-Stanton/Wilmington,39.740259,13,-75.552162,-2,1,2,4,DE,3018,3018,7548,,,,130916,19801
1200 N. Dupont Highway,Dover,1,1,9,1,Delaware State University,39.187173,13,-75.54053,-2,1,2,1,DE,6506,6506,14862,5004,5004,11040,130934,19901
104 Hullihen Hall,Newark,1,2,9,1,University of Delaware,39.679791,21,-75.7536,-2,1,2,1,DE,10580,10580,28400,28404,28404,28404,130943,19716
4701 Limestone Rd,Wilmington,2,2,7,1,Goldey-Beacom College,39.742464,21,-75.694018,-2,1,2,2,DE,21840,21840,21840,17604,17604,17604,130989,19808
120 N State St,Dover,2,2,8,1,Wesley College,39.16325,13,-75.527377,-2,1,2,2,DE,22640,22640,22640,8820,8820,8820,131098,19901-3875
320 Dupont Hwy,New Castle,2,2,9,1,Wilmington University,39.682299,21,-75.586998,-2,1,2,2,DE,9900,9900,9900,7632,7632,7632,131113,19720
4400 Massachusetts Ave NW,Washington,2,2,9,1,American University,38.937802,11,-77.090106,-2,1,2,2,DC,40132,40132,40132,25920,25920,25920,131159,20016-8001
"620 Michigan Avenue, NE",Washington,2,2,9,1,Catholic University of America,38.935796,11,-76.998961,-2,1,2,2,DC,38000,38000,38000,39000,39000,39000,131283,20064
"500 Seventeenth Street, NW",Washington,2,2,7,1,Corcoran College of Art and Design,38.895757,11,-77.039812,-2,1,2,2,DC,30930,30930,30930,24610,24610,24610,131308,20006-4804
4200 Connecticut Ave NW,Washington,1,1,7,1,University of the District of Columbia,38.943819,11,-77.066247,-2,1,2,1,DC,6635,6635,13915,7883,7883,15163,131399,20008
"487 Michigan Ave, NE",Washington,2,2,7,1,Pontifical Faculty of the Immaculate Conception at the Dominican House of Studies,38.931427,11,-76.998806,-2,1,2,2,DC,,,,15120,15120,15120,131405,20017-1585
"800 Florida Ave, NE",Washington,2,2,9,1,Gallaudet University,38.907371,11,-76.993675,-2,1,2,2,DC,13424,13424,13424,14774,14774,14774,131450,20002-3695
"2121 I Street, NW",Washington,2,2,9,1,George Washington University,38.89865,11,-77.047871,-2,1,2,2,DC,45122,45122,45122,25920,25920,25920,131469,20052
37th and O St NW,Washington,2,2,9,1,Georgetown University,38.908809,11,-77.073463,-2,1,2,2,DC,44280,44280,44280,41736,41736,41736,131496,20057-0001
2400 Sixth St NW,Washington,2,1,9,1,Howard University,38.920739,11,-77.019478,-2,1,2,2,DC,21450,21450,21450,30545,30545,30545,131520,20059-0001
1133 15th St NW,Washington,3,2,7,1,Strayer University-District of Columbia,38.904851,11,-77.034349,-2,1,2,3,DC,15300,15300,15300,13950,13950,13950,131803,20005
1556 Wisconsin Ave NW,Washington,2,2,4,2,National Conservatory of Dramatic Arts,38.910024,11,-77.065095,-2,1,2,5,DC,8900,8900,8900,,,,131830,20007
125 Michigan Ave NE,Washington,2,2,7,1,Trinity Washington University,38.927398,11,-77.004261,-2,1,2,2,DC,20970,20970,20970,12600,12600,12600,131876,20017-1094
"4500 Massachusetts Ave., NW",Washington,2,2,9,1,Wesley Theological Seminary,38.939606,11,-77.08996,-2,1,2,2,DC,,,,16200,16200,16200,131973,20016-5690
1799 SE 17th St,Fort Lauderdale,3,2,5,1,The Art Institute of Fort Lauderdale,26.101246,12,-80.123514,-2,1,5,3,FL,17604,17604,17604,,,,132338,33316-3000
5400 College Dr,Graceville,2,2,7,1,The Baptist College of Florida,30.956401,32,-85.519033,-2,1,5,2,FL,9300,9300,9300,3720,3720,3720,132408,32440
11300 NE 2nd Ave,Miami,2,2,9,1,Barry University,25.878865,21,-80.196136,-2,1,5,2,FL,28160,28160,28160,17280,17280,17280,132471,33161-6695
2901 Martin Luther King Jr. Blvd,Panama City,3,2,7,1,Gooding Institute of Nurse Anesthesia,30.200503,13,-85.649864,-2,1,5,3,FL,,,,24600,24600,24600,132523,32405
640 Dr Mary McLeod Bethune Blvd,Daytona Beach,2,1,7,1,Bethune-Cookman University,29.210193,13,-81.031429,-2,1,5,2,FL,14410,14410,14410,9270,9270,9270,132602,32114-3099
3601 N. Military Trail,Boca Raton,2,2,9,1,Lynn University,26.382777,13,-80.123851,-2,1,5,2,FL,31900,31900,31900,23760,23760,23760,132657,33431-5598
1519 Clearlake Rd,Cocoa,1,2,5,1,Eastern Florida State College,28.384791,21,-80.75813,-2,1,5,1,FL,1892,1892,7573,,,,132693,32922
111 East Las Olas Blvd,Fort Lauderdale,1,2,5,1,Broward College,26.07972,21,-80.23541,-2,1,5,1,FL,1810,1810,1810,,,,132709,33301
1573 W. Fairbanks Ave Suite #100,Winter Park,3,2,3,2,Fortis College-Winter Park,28.555401,21,-81.448402,-2,1,5,6,FL,19955,19955,19955,,,,132806,32789
2173 N.W.  99th Avenue,Miami,2,2,9,1,Carlos Albizu University-Miami,25.795162,21,-80.355002,-2,1,5,2,FL,11304,11304,11304,10800,10800,10800,132842,33172-2209
3001 SW College Rd,Ocala,1,2,5,1,College of Central Florida,29.166079,13,-82.175692,-2,1,5,1,FL,1910,1910,7642,,,,132851,34474
1011 Bill Beck Blvd,Kissimmee,2,2,5,1,Johnson University Florida,28.301869,21,-81.362512,-2,1,5,2,FL,11400,11400,11400,,,,132879,34744
4000 Central Florida Blvd,Orlando,1,2,9,1,University of Central Florida,28.60106,21,-81.198805,-2,1,5,1,FL,4478,4478,19810,6916,6916,25759,132903,32816
18150 Murdock Circle,Port Charlotte,1,2,4,2,Charlotte Technical Center,27.005558,22,-82.147238,-2,1,5,4,FL,2773,2773,11120,,,,132976,33948-3399
3094 Indian Circle,Marianna,1,2,5,1,Chipola College,30.790647,32,-85.231946,-2,1,5,1,FL,2365,2365,8195,,,,133021,32446-2053
3400 Gulf to Bay Blvd,Clearwater,2,2,7,1,Clearwater Christian College,27.963556,12,-82.697305,-2,1,5,2,FL,16250,16250,16250,4680,4680,4680,133085,33759-4595
1200 W. International Speedway Blvd.,Daytona Beach,1,2,5,1,Daytona State College,29.202286,13,-81.051266,-2,1,5,1,FL,3134,3134,12204,,,,133386,32114
9801 Belvedere Road,Royal Palm Beach,3,2,7,1,South University-West Palm Beach,26.69165,21,-80.19969,-2,1,5,3,FL,16185,16185,16185,22821,22821,22821,133465,33411
4200 54th Ave S,Saint Petersburg,2,2,5,1,Eckerd College,27.718996,12,-82.685992,-2,1,5,2,FL,37046,37046,37046,,,,133492,33711-4700
8099 College Pky SW,Fort Myers,1,2,5,1,Edison State College,26.554737,21,-81.887375,-2,1,5,1,FL,2436,2436,9750,,,,133508,33919-0000
1658 Kings Rd,Jacksonville,2,1,5,1,Edward Waters College,30.34513,11,-81.684817,-2,1,5,2,FL,11325,11325,11325,,,,133526,32209
600 S Clyde Morris Blvd,Daytona Beach,2,2,9,1,Embry-Riddle Aeronautical University-Daytona Beach,29.189244,13,-81.0495,-2,1,5,2,FL,30120,30120,30120,15060,15060,15060,133553,32114-3900
1500 S Martin Luther King Jr Blvd,Tallahassee,1,1,9,1,Florida Agricultural and Mechanical University,30.428599,12,-84.285664,-2,1,5,1,FL,3152,3152,14524,8019,8019,22108,133650,32307
777 Glades Rd,Boca Raton,1,2,9,1,Florida Atlantic University,26.372536,13,-80.102293,-2,1,5,1,FL,2522,2522,14332,5467,5467,16695,133669,33431-0991
501 W State St,Jacksonville,1,2,5,1,Florida State College at Jacksonville,30.334918,11,-81.659901,-2,1,5,1,FL,2095,2095,7947,,,,133702,32202
74 King Street,Saint Augustine,2,2,5,1,Flagler College-St Augustine,29.89335,23,-81.315256,-2,1,5,2,FL,16180,16180,16180,,,,133711,32084
119 N Glen Arven Ave,Temple Terrace,2,2,5,1,Florida College,28.034911,21,-82.383446,-2,1,5,2,FL,13670,13670,13670,,,,133809,33617-5527
671 Winyah Drive,Orlando,2,2,7,1,Adventist University of Health Sciences,28.576142,12,-81.367687,-2,1,5,2,FL,11250,11250,11250,18796,18796,18796,133872,32803
150 West University Boulevard,Melbourne,2,2,9,1,Florida Institute of Technology,28.064503,13,-80.624628,-2,1,5,2,FL,35460,35460,35460,20214,20214,20214,133881,32901-6975
11200 S. W. 8 Street,Miami,1,2,9,1,Florida International University,25.757111,21,-80.377591,-2,1,5,1,FL,4721,4721,16529,8652,8652,20174,133951,33199
5901 College Rd,Key West,1,2,4,2,Florida Keys Community College,24.582748,33,-81.74446,-2,1,5,4,FL,2483,2483,9933,,,,133960,33040
15800 NW 42 Avenue,Miami Gardens,2,1,7,1,Florida Memorial University,25.917854,21,-80.270672,-2,1,5,2,FL,12384,12384,12384,16277,16277,16277,133979,33054-6199
1321 SW 107 Ave Ste 201B,Miami,3,2,5,1,Florida Career College-Miami,25.755342,21,-80.366666,-2,1,5,3,FL,18000,18000,18000,,,,133997,33174
111 Lake Hollingsworth Dr,Lakeland,2,2,7,1,Florida Southern College,28.031507,13,-81.945791,-2,1,5,2,FL,27930,27930,27930,14473,14473,14473,134079,33801-5698
222 S. Copeland Street,Tallahassee,1,2,9,1,Florida State University,30.4421,12,-84.294801,-2,1,5,1,FL,4640,4640,19084,9684,9684,24116,134097,32306-1037
"9550 Regency Square Blvd., Suite 1100",Jacksonville,3,2,7,1,University of Southernmost Florida,30.32563,11,-81.550021,-2,1,5,3,FL,9975,9975,9975,9231,9231,9231,134121,32225
,Gainesville,1,2,9,1,University of Florida,29.638248,12,-82.361195,-2,1,5,1,FL,4477,4477,25694,10770,10770,27335,134130,32611
225 N. Federal Hwy.,Pompano Beach,3,2,7,1,Everest University-Pompano Beach,26.234119,12,-80.103598,-2,1,5,3,FL,14796,14796,14796,13152,13152,13152,134149,33062
3300 University Blvd,Winter Park,3,2,7,1,Full Sail University,28.596546,21,-81.301286,-2,1,5,3,FL,19001,19001,19001,16377,16377,16377,134237,32792-7429
5230 West U.S. Highway 98,Panama City,1,2,5,1,Gulf Coast State College,30.186104,13,-85.727249,-2,1,5,1,FL,2042,2042,8242,,,,134343,32401
"225 East Dania Beach Blvd., #130",Dania Beach,3,2,3,2,Key College,26.052841,21,-80.139871,-2,1,5,6,FL,10785,10785,10785,,,,134422,33004-3046
39 Columbia Drive,Tampa,1,2,4,2,Hillsborough Community College,27.934513,11,-82.456919,-2,1,5,4,FL,1931,1931,7727,,,,134495,33606-3584
11298 SE Gomez,Hobe Sound,2,2,5,1,Hobe Sound Bible College,27.066473,21,-80.132413,-2,1,5,2,FL,5000,5000,5000,,,,134510,33455-1065
3209 Virginia Ave,Fort Pierce,1,2,5,1,Indian River State College,27.423121,21,-80.35785,-2,1,5,1,FL,2496,2496,9360,,,,134608,34981-5596
5104 Eisenhower Blvd,Tampa,3,2,5,1,International Academy of Design and Technology-Tampa,27.992234,21,-82.548493,-2,1,5,3,FL,15600,15600,15600,,,,134680,33634
1501 Biscayne Boulevard,Miami,3,2,7,1,AI Miami International University of Art and Design,25.790008,11,-80.18839,-2,1,5,3,FL,17604,17604,17604,22896,22896,22896,134811,33132-1418
4809 Memorial Hwy,Tampa,3,2,5,1,ITT Technical Institute-Tampa,27.982417,21,-82.547618,-2,1,5,3,FL,17748,17748,17748,,,,134909,33634-7350
2800 University Blvd N,Jacksonville,2,2,9,1,Jacksonville University,30.350349,11,-81.60706,-2,1,5,2,FL,29900,29900,29900,11952,11952,11952,134945,32211-3394
5353 Arlington Expy,Jacksonville,2,2,5,1,Jones College-Jacksonville,30.328002,11,-81.610068,-2,1,5,2,FL,7320,7320,7320,,,,135063,32211
1500 NW 49th St.,Fort Lauderdale,2,2,9,1,Keiser University-Ft Lauderdale,26.185869,12,-80.163959,-2,1,5,2,FL,15404,15404,15404,19188,19188,19188,135081,33309
Highway 90 East,Lake City,1,2,5,1,Florida Gateway College,30.174307,33,-82.569667,-2,1,5,1,FL,2369,2369,9473,,,,135160,32025-2007
9501 US Hwy 441,Leesburg,1,2,5,1,Lake-Sumter State College,28.830237,22,-81.797731,-2,1,5,1,FL,3172,3172,13276,,,,135188,34788-8751
3038 Evans Mill Rd,Lithonia,2,2,9,1,Luther Rice University & Seminary,33.697984,21,-84.123648,-2,1,5,2,GA,5472,5472,5472,4140,4140,4140,135364,30038-9869
5840 26th St W,Bradenton,1,2,5,1,State College of Florida-Manatee-Sarasota,27.436066,21,-82.591739,-2,1,5,1,FL,2365,2365,9467,,,,135391,34207
3225 Winter Lake Rd,Lakeland,1,2,4,2,Traviss Career Center,27.99579,41,-81.893503,-2,1,5,4,FL,2851,2851,11405,,,,135522,33803
8190 West State Road 84,Davie,2,2,7,1,Trinity International University-Florida,26.099656,21,-80.257156,-2,1,5,2,FL,10848,10848,10848,11016,11016,11016,135610,33324
300 NE 2nd Avenue,Miami,1,2,5,1,Miami Dade College,25.777717,11,-80.190856,-2,1,5,1,FL,2483,2483,9933,,,,135717,33132-2204
University of Miami,Coral Gables,2,2,9,1,University of Miami,25.720406,21,-80.27645,-2,1,5,2,FL,41580,41580,41580,31140,31140,31140,135726,33146
"6302 E. Dr. Martin Luther King Jr. Blvd, Ste 400",Tampa,2,2,5,1,Remington College-Tampa Campus,27.983466,21,-82.385976,-2,1,5,2,FL,15776,15776,15776,,,,135939,33619
"111 NW 183rd St, Ste 200",Miami,3,2,3,2,Everest Institute-North Miami,25.942952,21,-80.203534,-2,1,5,6,FL,15552,15552,15552,,,,135957,33169-4538
2410 Metrocentre Blvd,West Palm Beach,3,2,5,1,Lincoln College of Technology-West Palm Beach,26.758227,12,-80.094805,-2,1,5,3,FL,12957,12957,12957,,,,136066,33407
3910 US Hwy 301 N Suite 200,Tampa,3,2,3,2,Fortis College-Tampa,27.980159,21,-82.361859,-2,1,5,6,FL,18486,18486,18486,,,,136075,33619
325 NW Turner Davis Dr,Madison,1,2,3,2,North Florida Community College,30.473871,41,-83.421873,-2,1,5,4,FL,2280,2280,9180,,,,136145,32340
1 UNF Drive,Jacksonville,1,2,9,1,University of North Florida,30.270917,11,-81.507853,-2,1,5,1,FL,3853,3853,16199,8978,8978,20517,136172,32224-7699
2600 N Military Trail,West Palm Beach,2,2,7,1,Northwood University-Florida,26.714688,12,-80.104138,-2,1,5,2,FL,21000,21000,21000,32760,32760,32760,136206,33409-2911
3301 College Ave,Fort Lauderdale,2,2,9,1,Nova Southeastern University,26.079337,21,-80.24248,-2,1,5,2,FL,24750,24750,24750,15350,15350,15350,136215,33314-7796
100 College Blvd,Niceville,1,2,5,1,Northwest Florida State College,30.537148,41,-86.475467,-2,1,5,1,FL,2313,2313,9252,,,,136233,32578-1295
5421 Diplomat Circle,Orlando,3,2,7,1,Everest University-North Orlando,28.610884,21,-81.387438,-2,1,5,3,FL,14436,14436,14436,12840,12840,12840,136288,32810
901 S. Flagler Drive,West Palm Beach,2,2,9,1,Palm Beach Atlantic University,26.704629,12,-80.049758,-2,1,5,2,FL,25232,25232,25232,8910,8910,8910,136330,33401
4200 Congress Ave,Lake Worth,1,2,5,1,Palm Beach State College,26.613214,21,-80.087104,-2,1,5,1,FL,2358,2358,8592,,,,136358,33461-4796
10230 Ridge Road,New Port Richey,1,2,3,2,Pasco-Hernando Community College,28.2751,21,-82.646727,-2,1,5,4,FL,2297,2297,9272,,,,136400,34654-5199
1000 College Blvd,Pensacola,1,2,5,1,Pensacola State College,30.480779,13,-87.200622,-2,1,5,1,FL,2051,2051,8208,,,,136473,32504-8998
999 Avenue H NE,Winter Haven,1,2,5,1,Polk State College,28.030775,13,-81.712932,-2,1,5,1,FL,2483,2483,9933,,,,136516,33881-4299
10701 South Military Trail,Boynton Beach,2,2,7,1,Saint Vincent de Paul Regional Seminary,26.51582,21,-80.125707,-2,1,5,2,FL,,,,225,225,225,136701,33436-4899
7700 State Rd 544,Winter Haven,1,2,4,2,Ridge Career Center,28.076632,13,-81.654463,-2,1,5,4,FL,3000,3000,7500,,,,136765,33881-9518
2700 North Tamiami Tr,Sarasota,2,2,5,1,Ringling College of Art and Design,27.35963,13,-82.548598,-2,1,5,2,FL,35490,35490,35490,,,,136774,34234-5895
1000 Holt Avenue,Winter Park,2,2,9,1,Rollins College,28.591992,21,-81.348716,-2,1,5,2,FL,41460,41460,41460,18950,18950,18950,136950,32789-4499
33701 State Road 52,Saint Leo,2,2,9,1,Saint Leo University,28.336776,23,-82.257287,-2,1,5,2,FL,19240,19240,19240,7596,7596,7596,137032,33574-6665
6021 142nd  Ave N,Clearwater,1,2,5,1,St Petersburg College,27.90242,13,-82.717331,-2,1,5,1,FL,2428,2428,9717,,,,137078,33760-2822
3000 Northwest 83rd Street,Gainesville,1,2,5,1,Santa Fe College,29.680698,22,-82.433958,-2,1,5,1,FL,1840,1840,7362,,,,137096,32606-6210
5250 17th Street,Sarasota,3,2,9,1,Argosy University-Sarasota,27.351394,21,-82.465363,-2,1,5,3,FL,13464,13464,13464,13158,13158,13158,137148,34235
100 Weldon Blvd,Sanford,1,2,5,1,Seminole State College of Florida,28.74475,13,-81.305606,-2,1,5,1,FL,2365,2365,9466,,,,137209,32773-6199
2900 SW 87th Ave,Miami,2,2,6,1,Saint John Vianney College Seminary,25.742579,21,-80.337411,-2,1,5,2,FL,21000,21000,21000,21000,21000,21000,137272,33165-3244
5001 Saint Johns Ave,Palatka,1,2,5,1,Saint Johns River State College,29.647195,32,-81.681137,-2,1,5,1,FL,2700,2700,9601,,,,137281,32177
600 W College Dr,Avon Park,1,2,5,1,South Florida State College,27.569553,41,-81.508387,-2,1,5,1,FL,3135,3135,11829,,,,137315,33825-9356
4202 East Fowler Ave,Tampa,1,2,9,1,University of South Florida-Main Campus,28.056647,11,-82.415876,-2,1,5,1,FL,4559,4559,15473,8350,8350,19047,137351,33620-9951
16401 NW 37th Ave,Miami Gardens,2,2,9,1,St Thomas University,25.920915,21,-80.256265,-2,1,5,2,FL,26370,26370,26370,15822,15822,15822,137476,33054-6459
3563 Phillips Highway Building E Suite 501,Jacksonville,3,2,4,2,Stenotype Institute of Jacksonville Inc-Jacksonville,30.289644,11,-81.635062,-2,1,5,6,FL,14800,14800,14800,,,,137537,32207
421 N Woodland Blvd,DeLand,2,2,9,1,Stetson University,29.036295,22,-81.301604,-2,1,5,2,FL,37980,37980,37980,15456,15456,15456,137546,32723
1000 Longfellow Blvd,Lakeland,2,2,7,1,Southeastern University,28.031864,13,-81.918997,-2,1,5,2,FL,18986,18986,18986,11151,11151,11151,137564,33801-6034
444 Appleyard Dr,Tallahassee,1,2,4,2,Tallahassee Community College,30.445234,12,-84.341462,-2,1,5,4,FL,2002,2002,7982,,,,137759,32304-2895
4000 Alton Rd,Miami Beach,2,2,7,1,Talmudic College of Florida,25.7949,13,-80.141334,-2,1,5,2,FL,12250,12250,12250,12250,12250,12250,137777,33140-3854
3319 W Hillsborough Ave,Tampa,3,2,7,1,Everest University-Tampa,27.996582,11,-82.497616,-2,1,5,3,FL,15156,15156,15156,12840,12840,12840,137801,33614
1199 East Bay Drive,Largo,3,2,7,1,Everest University-Largo,27.915296,13,-82.775886,-2,1,5,3,FL,15156,15156,15156,12840,12840,12840,137810,33770-2556
401 W Kennedy Blvd,Tampa,2,2,8,1,The University of Tampa,27.947225,11,-82.465582,-2,1,5,2,FL,23990,23990,23990,9828,9828,9828,137847,33606-1490
800 Hammond Blvd,Jacksonville,2,2,7,1,Trinity Baptist College,30.323755,11,-81.705655,-2,1,5,2,FL,8790,8790,8790,,,,137953,32221
2430 Welbilt Boulevard,Trinity,2,2,5,1,Trinity College of Florida,28.194222,21,-82.677065,-2,1,5,2,FL,12528,12528,12528,,,,137962,34655-4401
190 South Orange Avenue,Orlando,1,2,5,1,Valencia College,28.522646,12,-81.464168,-2,1,5,1,FL,1888,1888,7555,,,,138187,32801
13895 Hwy 27,Lake Wales,2,2,7,1,Warner University,27.825751,41,-81.599972,-2,1,5,2,FL,17880,17880,17880,9650,9650,9650,138275,33859-8797
1201 N Scenic Hwy,Babson Park,2,2,7,1,Webber International University,27.838798,31,-81.532325,-2,1,5,2,FL,21050,21050,21050,15480,15480,15480,138293,33827-0096
4755 Southwest 46th Court,Ocala,3,2,5,1,Rasmussen College-Florida,29.14081,13,-82.19842,-2,1,5,3,FL,10764,10764,10764,,,,138309,34474-6226
11000 University Parkway,Pensacola,1,2,9,1,The University of West Florida,30.542855,13,-87.218125,-2,1,5,1,FL,3735,3735,16004,6984,6984,22061,138354,32514-5750
2802 Moore Hwy,Tifton,1,2,5,1,Abraham Baldwin Agricultural College,31.481889,32,-83.528281,-2,1,5,1,GA,2846,2846,10514,,,,138558,31793-2601
141 E. College Ave,Decatur,2,2,5,1,Agnes Scott College,33.769996,21,-84.29563,-2,1,5,2,GA,34548,34548,34548,,,,138600,30030-3797
5303 New Peachtree Rd,Chamblee,3,2,3,2,Interactive College of Technology-Chamblee,33.889452,21,-84.301964,-2,1,5,6,GA,8880,8880,8880,,,,138655,30341
1580 Southlake Parkway  Suite C,Morrow,3,2,3,2,Interactive College of Technology-Morrow,33.57233,21,-84.336098,-2,1,5,6,GA,8400,8400,8400,,,,138664,30260
1704 South Slappey Boulevard,Albany,1,2,4,2,Albany Technical College,31.55434,13,-84.174284,-2,1,5,4,GA,2040,2040,4080,,,,138682,31701
2400 Gillionville Rd,Albany,1,2,3,2,Darton State College,31.583594,13,-84.212087,-2,1,5,4,GA,2077,2077,7857,,,,138691,31707-3098
504 College Dr.,Albany,1,1,8,1,Albany State University,31.571395,13,-84.14306,-2,1,5,1,GA,3700,3700,13460,3402,3402,13590,138716,31705
501College St,Cuthbert,2,2,3,2,Andrew College,31.772321,32,-84.795021,-2,1,5,5,GA,13098,13098,13098,,,,138761,39840-5550
11935 Abercorn St,Savannah,1,2,9,1,Armstrong Atlantic State University,31.978109,12,-81.160409,-2,1,5,1,GA,3699,3699,13461,3618,3618,13410,138789,31419-1997
"6600 Peachtree Dunwoody Rd., 100 Embassy Row",Atlanta,3,2,5,1,The Art Institute of Atlanta,33.937445,13,-84.354867,-2,1,5,3,GA,17496,17496,17496,,,,138813,30328-1635
1560 Metropolitan Pky SW,Atlanta,1,2,4,2,Atlanta Technical College,33.712009,11,-84.404995,-2,1,5,4,GA,2040,2040,4080,,,,138840,30310-4446
507 West 10th Street,West Point,2,2,5,1,Point University,32.879467,32,-85.184285,-2,1,5,2,GA,16250,16250,16250,,,,138868,31833
"1630 Metropolitan Parkway, SW",Atlanta,1,2,5,1,Atlanta Metropolitan State College,33.70893,11,-84.404659,-2,1,5,1,GA,2076,2076,7858,,,,138901,30310-4498
1422 W Peachtree St NW,Atlanta,3,2,9,1,Atlanta's John Marshall Law School,33.793388,11,-84.38777,-2,1,5,3,GA,,,,,,,138929,30309
"223 James P Brawley Drive, S.W.",Atlanta,2,1,9,1,Clark Atlanta University,33.748772,11,-84.412818,-2,1,5,2,GA,19488,19488,19488,14616,14616,14616,138947,30314-4391
3200 Augusta Tech Drive,Augusta,1,2,4,2,Augusta Technical College,33.418992,12,-82.048439,-2,1,5,4,GA,2040,2040,4080,,,,138956,30906
2500 E Shotwell St,Bainbridge,1,2,4,2,Bainbridge State College,30.899474,32,-84.535049,-2,1,5,4,GA,2077,2077,7858,,,,139010,39819
"384 Northyards Blvd., Suite 190",Atlanta,3,2,5,1,Bauder College,33.767494,11,-84.399724,-2,1,5,3,GA,13089,13089,13089,,,,139074,30313
2277 Martha Berry Hwy NW,Mount Berry,2,2,7,1,Berry College,34.289254,23,-85.189077,-2,1,5,2,GA,28890,28890,28890,9432,9432,9432,139144,30149
892 Berne St SE,Atlanta,2,2,9,1,Beulah Heights University,33.737022,11,-84.358086,-2,1,5,2,GA,8640,8640,8640,8910,8910,8910,139153,30316
500 Washington Street SE,Gainesville,2,2,9,1,Brenau University,34.303117,13,-83.821513,-2,1,5,2,GA,23000,23000,23000,11880,11880,11880,139199,30501-3668
201 David-Eliza Fountain Circle,Mount Vernon,2,2,5,1,Brewton-Parker College,32.185718,42,-82.586136,-2,1,5,2,GA,12410,12410,12410,,,,139205,30445
"1900 Emery St, NW, Suite 200",Atlanta,3,2,4,2,Brown College of Court Reporting,33.807277,11,-84.414366,-2,1,5,6,GA,12450,12450,12450,,,,139214,30318
One College Drive,Brunswick,1,2,5,1,College of Coastal Georgia,31.136384,13,-81.492667,-2,1,5,1,GA,2918,2918,10776,,,,139250,31520-3644
176 Murphy Campus Blvd.,Waco,1,2,4,2,West Georgia Technical College,33.691657,41,-85.183666,-2,1,5,4,GA,2040,2040,4080,,,,139278,30182
3870 Cascade Rd,Atlanta,2,2,5,1,Carver Bible College,33.7236,21,-84.515091,-2,1,5,2,GA,8160,8160,8160,,,,139287,30331
2000 Clayton State Boulevard,Morrow,1,2,7,1,Clayton  State University,33.594079,21,-84.328174,-2,1,5,1,GA,3699,3699,13461,6030,6030,24030,139311,30260-0285
